,start_station_id,start_station_name,lat,lon,bike_counts
0,30200,9th St & Pennsylvania Ave NW,38.894266418336144,-77.02397925870821,161
1,30201,9th & G St NW,38.898107546132465,-77.0239301659898,158
2,31000,Eads St & 15th St S,38.85896897754372,-77.05323816275462,68
3,31002,Crystal Dr & 20th St S,38.856415294692255,-77.0492360143707,96
4,31003,Crystal Dr & 15th St S,38.86104805261565,-77.04941218812463,103
5,31004,Aurora Hills Cmty Ctr / 18th St & S Hayes St,38.857866684674754,-77.05948989266916,38
6,31005,Pentagon City Metro / 12th St & S Hayes St,38.8622899867152,-77.05993570390171,134
7,31006,Army Navy Dr & S Joyce St,38.86331349701495,-77.06341170402293,81
8,31006,Pentagon Row Plaza / Army Navy Dr & Joyce St,38.86331512104193,-77.0634162434912,60
9,31007,Crystal City Metro / 18th St & S Bell St,38.85776644172304,-77.05169178037575,135
10,31009,Crystal Dr & 27th St S,38.84845429801152,-77.05149123802086,53
11,31010,S Glebe Rd & Potomac Ave,38.842603652626025,-77.05020637969258,55
12,31011,Crystal Dr & 23rd St S,38.85292995817102,-77.04972156705962,79
13,31012,Clark St & 26th St S,38.85067467125154,-77.05153054693606,25
14,31013,Eads St & 22nd St S,38.85438096359067,-77.05341198028381,64
15,31014,19th St N & Ft Myer Dr,38.89719822824396,-77.07212542681589,68
16,31014,Lynn St & 19th St North,38.89734123671085,-77.07095166784205,112
17,31015,Wilson Blvd & Ft Myer Dr,38.894602471085456,-77.07228854700783,60
18,31016,Clarendon Blvd & Pierce St,38.89344727564391,-77.07636502115972,65
19,31017,Wilson Blvd & N Uhle St,38.891702358474255,-77.08459870082676,58
20,31018,Rhodes St & 16th St N,38.892167592660925,-77.07937688450015,30
21,31019,Wilson Blvd & N Edgewood St,38.88939551811117,-77.09185962387177,66
22,31020,Wilson Blvd & N Franklin Rd,38.89040469004132,-77.08889831076397,54
23,31021,Clarendon Blvd & N Fillmore St,38.88809532707775,-77.09308731706867,62
24,31022,Clarendon Metro / Wilson Blvd & N Highland St,38.8870118000088,-77.09525677834313,166
25,31023,Fairfax Dr & Wilson Blvd,38.8858091579351,-77.09772319695125,51
26,31024,Virginia Square Metro / Monroe St & 9th St N,38.88278267640728,-77.10316550740876,102
27,31025,Central Library / Quincy St & 10th St N,38.88397272808395,-77.10782656404605,49
28,31026,Washington Blvd & 10th St N,38.88473124740671,-77.0934871064222,59
29,31027,Wilson Blvd & N Quinn St,38.8940006943363,-77.07858122145007,82
30,31028,N Veitch St & Key Blvd,38.893236173587155,-77.08606101124171,16
31,31029,N Veitch St & 20th St N,38.896933915508576,-77.08649051046083,36
32,31030,Langston Blvd & N Adams St,38.89593685113148,-77.08900228320347,84
33,31031,15th St & N Scott St,38.8905391199994,-77.08094084200283,45
34,31032,Washington Blvd & 7th St N,38.88080950005414,-77.09078571227549,27
35,31033,Barcroft Community Center,38.85033971942944,-77.10098687021141,17
36,31034,Fairfax Dr & N Randolph St,38.88262422401293,-77.10937378813814,50
37,31035,N Quincy St & Glebe Rd,38.87638731021302,-77.10772643134122,32
38,31036,George Mason Dr & Wilson Blvd,38.87886786218548,-77.12069691784981,37
39,31037,Ballston Metro / Stuart St & 9th St N,38.88104386990611,-77.11177107819042,115
40,31038,Glebe Rd & 11th St N,38.88392662680651,-77.11681673751414,30
41,31039,Wilson Blvd & N Quincy St,38.87999337727269,-77.10784126552173,84
42,31040,GMU / Fairfax Dr & Kenmore St,38.88461761436082,-77.10107591543658,23
43,31040,GMU/Fairfax Dr & Kenmore St,38.88469169971513,-77.10034196237585,38
44,31041,Prince St & Union St,38.80312145556303,-77.04035423722681,67
45,31042,Market Square / King St & Royal St,38.80471689567476,-77.04335763163395,57
46,31043,St Asaph & Pendleton St,38.810742521877984,-77.04462640181755,31
47,31044,King St & Patrick St,38.805312485251164,-77.04988850090288,35
48,31045,Commerce St & Fayette St,38.805647972420985,-77.05292994454118,25
49,31046,Henry St & Pendleton St,38.811457272924166,-77.05027199944635,17
50,31047,Braddock Rd Metro,38.81457110833333,-77.05280923518518,7
51,31047,Braddock Rd Metro North,38.81457424589537,-77.0528089450455,29
52,31048,King St Metro South,38.80576556388568,-77.06064681350999,36
53,31049,Fairfax Dr & N Taylor St,38.88240857236856,-77.11275845167225,33
54,31049,Utah St & 11th St N,38.88367224286434,-77.11390666739453,20
55,31050,Barton St & 10th St N,38.884987783458655,-77.08778948672574,21
56,31051,Arlington Blvd & N Queen St,38.889361109409535,-77.07729707630334,39
57,31052,Potomac Ave & 35th St S,38.84401065966153,-77.05052941285527,39
58,31053,Columbia Pike & S Courthouse Rd,38.8638614259119,-77.08032261882926,27
59,31054,Wakefield High School,38.84713570422597,-77.11254307120225,23
60,31055,28th St & S Meade St,38.84623084371375,-77.06928880720402,28
61,31056,S Troy St & 26th St S,38.84798720328703,-77.07511276008864,14
62,31056,Troy St & 26th St S,38.84798303539361,-77.07511167929715,15
63,31057,Four Mile Run Dr & S Shirlington Rd,38.84440027256333,-77.08592857060967,14
64,31057,S Four Mile Run Dr & Shirlington Rd,38.84440104486016,-77.08592871669508,13
65,31058,Columbia Pike & Monroe St,38.86033673781836,-77.09369212176671,18
66,31058,Columbia Pike & S Oakland St,38.86078432768519,-77.0958655148148,4
67,31059,Four Mile Run Dr & S Walter Reed Dr,38.84735652982833,-77.09542205320055,12
68,31059,S Four Mile Run Dr & Walter Reed Dr,38.847355831410034,-77.09542189521724,15
69,31060,S Arlington Mill Dr & Campbell Ave,38.8423198381198,-77.08955687416687,44
70,31061,Kenmore St & 24th St S,38.84845684765142,-77.08491068126402,10
71,31061,S Kenmore St & 24th St S,38.848461482158285,-77.08491404588355,13
72,31062,Roosevelt Island,38.89655324832216,-77.0671411400857,156
73,31063,S George Mason & Four Mile Run Dr,38.85225323144293,-77.10502827861487,9
74,31063,S George Mason Dr & S Four Mile Run Dr,38.85225367933404,-77.10503041143608,10
75,31064,Gravelly Point,38.86502816573491,-77.03951589828051,224
76,31065,N Pershing Dr & N Wayne St,38.8807128361363,-77.08604155089249,26
77,31065,Pershing Dr & Wayne St,38.88071130795573,-77.08600543979296,20
78,31066,Columbia Pike & S Orme St,38.86726980319494,-77.07231664323426,24
79,31067,Columbia Pike & S Walter Reed Dr,38.8624761482416,-77.08659121342096,23
80,31068,Arlington Mill Cmty Center / Columbia Pike & S Dinwiddie St,38.85635852431058,-77.11157046091785,45
81,31069,N Pershing Dr & N George Mason Dr,38.87180953982098,-77.1079280467586,14
82,31069,Pershing Dr & N George Mason Dr,38.871811320435256,-77.10792224692894,17
83,31070,Arlington Blvd & Fillmore St,38.8737502752725,-77.08924160188047,29
84,31071,Eads St & 12th St S,38.862955956376716,-77.05446568933895,126
85,31072,31st St & S Woodrow St,38.83784967316172,-77.09348130739187,8
86,31073,Washington Blvd & Walter Reed Dr ,38.87323165062995,-77.08210563344522,25
87,31074,TJ Cmty Ctr / 2nd St & S Old Glebe Rd,38.869424268153956,-77.09560204503107,38
88,31075,Rolfe St & 9th St S,38.86647359283266,-77.07613021921271,28
89,31076,S Randolph St & Campbell Ave,38.84063473040693,-77.08868563624725,19
90,31077,Iwo Jima Memorial / Meade & 14th St N,38.88991734146884,-77.07130153008652,138
91,31078,Arlington Blvd & S George Mason Dr,38.869442208734284,-77.10449870574493,23
92,31079,Langston Blvd & N Cleveland St,38.89494265998815,-77.09170064803517,34
93,31080,Langston Blvd & N Scott St,38.897617904041304,-77.08085254489356,50
94,31081,Duke St & John Carlyle St,38.804383432318545,-77.06086794227247,28
95,31082,Eisenhower Ave & Mill Race Ln,38.80108728210044,-77.06894539822915,30
96,31083,Potomac Greens Dr & Slaters Ln,38.821750004418796,-77.04749232636514,34
97,31084,Ballenger Ave & Dulaney St,38.8026749944392,-77.06356653796648,24
98,31085,Mount Vernon Ave & E Nelson Ave,38.820063442173215,-77.0576195689129,35
99,31086,Mount Vernon Ave & E Del Ray Ave,38.825953962567475,-77.05854628825574,36
100,31087,Monroe Ave & Leslie Ave,38.820934473863595,-77.05309093700548,34
101,31088,Mount Vernon Ave & Kennedy St,38.83307023247635,-77.05982338733833,24
102,31089,Court House Metro / 15th St & N Uhle St,38.890605099874456,-77.08480540649651,119
103,31090,Long Bridge Park / Long Bridge Dr & 6th St S,38.865552693498415,-77.05002638612387,18
104,31091,Joyce St & 16th St S,38.85925580929776,-77.06327526157489,58
105,31092,Langston Blvd & N Monroe St,38.8964538955057,-77.1045582793891,20
106,31093,21st St & N Pierce St,38.89898296044876,-77.07832214442247,41
107,31094,Langston Blvd & N Kirkwood Rd,38.89536886230251,-77.09716671915938,11
108,31094,Langston Blvd & N Kirkwood St,38.8953694936806,-77.09715587754074,13
109,31095,Army Navy Dr & S Nash St,38.86218837116176,-77.0681404620145,10
110,31096,Walter Reed Dr & 8th St S,38.86615174698332,-77.08782155864051,27
111,31097,Saint Asaph St & Madison St,38.81271024643648,-77.04410718872833,32
112,31098,King St Metro North / Cameron St,38.80703016695391,-77.05981104438023,65
113,31099,Madison St & N Henry St,38.813486334404786,-77.0494667195995,18
114,31100,19th St & Pennsylvania Ave NW,38.90028360581051,-77.04290475851731,138
115,31101,14th & V St NW,38.91776910519719,-77.0320709463619,657
116,31102,11th & Kenyon St NW,38.92946598205163,-77.02782196592193,359
117,31103,15th & Harvard St NW,38.926121437716006,-77.0354332708637,25
118,31104,Adams Mill & Columbia Rd NW,38.92288310014154,-77.04252065265267,466
119,31105,14th & Harvard St NW,38.92678780394014,-77.03220352704942,118
120,31106,Calvert & Biltmore St NW,38.92320022872129,-77.047642402285,150
121,31107,Lamont & Mt Pleasant NW,38.9319118026661,-77.03879055606218,310
122,31108,4th & M St SW,38.87672154817446,-77.01787561789614,467
123,31109,7th & T St NW,38.91560475768769,-77.02199203218903,162
124,31109,7th St & Florida Ave NW,38.916138614322136,-77.02201202423043,174
125,31110,20th St & Florida Ave NW,38.91540202823677,-77.04459971272406,342
126,31111,10th & U St NW,38.91719902271704,-77.02590196477894,185
127,31112,Harvard St & Adams Mill Rd NW,38.927874665153055,-77.04334843569247,102
128,31113,Columbia Rd & Belmont St NW,38.920663562170574,-77.04367365660025,256
129,31114,18th St & Wyoming Ave NW,38.918803430011806,-77.0415707634073,481
130,31115,Columbia Rd & Georgia Ave NW,38.92811465217594,-77.02378685593168,239
131,31116,California St & Florida Ave NW,38.91776056368703,-77.0406269931701,442
132,31117,15th & Euclid St NW,38.92335211388837,-77.03518321570692,248
133,31118,3rd & Elm St NW,38.91762313926784,-77.01596862792078,265
134,31119,14th & Belmont St NW,38.92107005567043,-77.03186267489627,365
135,31120,10th & Florida Ave NW,38.92038631519475,-77.02566928939096,182
136,31120,10th St & Florida Ave NW,38.9203819713865,-77.0256723931205,190
137,31121,Calvert St & Woodley Pl NW,38.92358100210718,-77.05005124238448,224
138,31122,16th & Irving St NW,38.92888331865287,-77.03624656141162,207
139,31123,14th & Girard St NW,38.92528946952404,-77.03236766951073,165
140,31124,14th & Irving St NW,38.92858686931254,-77.03223096121778,456
141,31125,15th & W St NW,38.919017378740584,-77.03445220316189,510
142,31126,11th & Girard St NW,38.92562992975124,-77.02710786152679,280
143,31127,22nd & H St NW,38.8989375457754,-77.04884445303291,201
144,31128,23rd & M St NW,38.905305928742514,-77.05026321990313,416
145,31129,15th St & Pennsylvania Ave NW,38.896457467705105,-77.03337688976634,358
146,31130,7th & S St NW,38.91417640655051,-77.02165001008309,269
147,31131,14th & Otis Pl NW,38.934381014206636,-77.03269155935722,246
148,31132,13th & U St NW,38.91691178190754,-77.029632589454,344
149,31133,20th & Columbia Rd NW,38.91805360471742,-77.04546811574221,227
150,31134,8th & V St NW,38.917728937539856,-77.02268769840519,267
151,31135,16th & Harvard St NW,38.92610778596237,-77.03665639854015,244
152,31136,11th & Clifton St NW,38.92228944176307,-77.02709091645,103
153,31137,Park Pl & Rock Creek Church Rd NW,38.93715463567519,-77.01911364237995,68
154,31138,4th & College St NW,38.921223604431646,-77.01813998208533,21
155,31200,Massachusetts Ave & Dupont Circle NW,38.910105586123564,-77.0443920135912,625
156,31201,15th & P St NW,38.909807083393886,-77.0344252152944,752
157,31202,14th & R St NW,38.9130388223763,-77.03198696342199,579
158,31203,14th & Rhode Island Ave NW,38.90859681917343,-77.03230580014801,462
159,31203,14th St & Rhode Island Ave NW,38.90859668562429,-77.03231021549784,446
160,31204,20th & E St NW,38.89629397688399,-77.04499118812298,180
161,31205,21st & I St NW,38.90071347423709,-77.04643733649728,345
162,31206,19th & E Street NW,38.8951967331655,-77.0436111656362,37
163,31207,Georgia Ave & Fairmont St NW,38.924818741118855,-77.02228190933151,79
164,31207,Georgia Ave and Fairmont St NW,38.92490675600684,-77.02220455970017,8
165,31208,M St & New Jersey Ave SE,38.87631200365633,-77.0036978991037,143
166,31209,1st & N St SE,38.874605729092494,-77.00577214503821,230
167,31210,17th St & Rhode Island Ave NW,38.9067605106893,-77.03861109950493,179
168,31211,Kennedy Center,38.89729524207793,-77.05556220935487,125
169,31212,New Hampshire Ave & Ward Pl NW,38.90571533304173,-77.04730648338865,503
170,31213,17th & K St NW,38.90275329109112,-77.03861929351496,365
171,31214,17th & Corcoran St NW,38.91209748091387,-77.03868833050936,514
172,31215,Georgetown Harbor / 30th St NW,38.90233240585993,-77.05913393666526,266
173,31216,14th St & New York Ave NW,38.89962730632729,-77.03168677600944,166
174,31217,USDA / 12th & C St SW,38.886285659797345,-77.02824165049579,137
175,31218,L'Enfant Plaza / 7th & C St SW,38.886266687620285,-77.02224473882629,208
176,31219,10th St & Constitution Ave NW,38.893023059827186,-77.02601013326642,345
177,31220,US Dept of State / Virginia Ave & 21st St NW,38.894899100829925,-77.04658548033841,146
178,31221,18th & M St NW,38.90505789974086,-77.04176763582478,283
179,31222,New York Ave & 15th St NW,38.899025910074656,-77.03334926877933,261
180,31223,Convention Center / 7th & M St NW,38.90573020206767,-77.02226424049718,321
181,31224,18th & L St NW,38.90373368423773,-77.04245329004125,239
182,31225,C & O Canal & Wisconsin Ave NW,38.90374380459132,-77.06269128257347,247
183,31226,34th St & Wisconsin Ave NW,38.916459686427345,-77.06820669282568,138
184,31227,13th St & New York Ave NW,38.900281309678114,-77.02984155660832,197
185,31228,8th & H St NW,38.89969651253028,-77.02307953500264,419
186,31229,New Hampshire Ave & T St NW,38.915547544327914,-77.03825342007876,861
187,31230,Metro Center / 12th & G St NW,38.8983317497977,-77.02791629466584,340
188,31231,14th & D St NW / Ronald Reagan Building,38.89451703021984,-77.03161986162819,208
189,31232,7th & F St NW / National Portrait Gallery,38.89729103086386,-77.02219794985017,454
190,31233,17th & K St NW / Farragut Square,38.902072433406985,-77.03834030891345,291
191,31234,20th & O St NW / Dupont South,38.90889441771423,-77.04479841980265,359
192,31235,19th St & Constitution Ave NW,38.89225332488931,-77.0432869528223,153
193,31236,37th & O St NW / Georgetown University,38.90775682638013,-77.07161706822681,369
194,31237,25th St & Pennsylvania Ave NW,38.90382770015665,-77.05348234307533,352
195,31238,14th & G St NW,38.89818581647388,-77.03196398734111,210
196,31239,Rhode Island & Connecticut Ave NW,38.90598919687354,-77.03982555773447,259
197,31240,Ohio Dr & West Basin Dr SW / MLK & FDR Memorials,38.88411526684534,-77.04656393934897,312
198,31241,Thomas Circle,38.905897508482525,-77.0325033873981,495
199,31242,18th St & Pennsylvania Ave NW,38.89966953447741,-77.04154990185603,210
200,31243,4th & C St SW,38.886373694773894,-77.01768666829811,341
201,31244,4th & E St SW,38.884110867670344,-77.01745790021306,217
202,31245,7th & R St NW / Shaw Library,38.91271910370901,-77.02220704451737,324
203,31246,M St & Pennsylvania Ave NW,38.905126688952485,-77.056883349024,440
204,31247,Jefferson Dr & 14th St SW,38.88855380181146,-77.03242690171135,773
205,31248,Smithsonian-National Mall / Jefferson Dr & 12th St SW,38.88877514088318,-77.02869389038227,691
206,31249,Jefferson Memorial,38.87981906395154,-77.03741511380099,477
207,31250,20th & L St NW,38.903567077930084,-77.0448124058802,227
208,31251,12th & L St NW,38.90381214697045,-77.0284045352069,305
209,31252,21st St & Pennsylvania Ave NW,38.901535071152004,-77.04658107164431,156
210,31253,19th & I St NW,38.90161075208907,-77.04341006611645,141
211,31253,19th & K St NW,38.9021916118081,-77.04339232747822,110
212,31254,15th & K St NW,38.90200378755885,-77.0335413561516,188
213,31255,24th & N St NW,38.90659928752241,-77.05149221622489,186
214,31256,10th & E St NW,38.89591708289366,-77.02604478314443,278
215,31257,22nd & I St NW / Foggy Bottom,38.90089349161016,-77.0488940569559,363
216,31258,Lincoln Memorial,38.888255965551195,-77.04943637664775,865
217,31259,20th St & Virginia Ave NW,38.89472535938976,-77.04512826913819,61
218,31260,23rd & E St NW ,38.896104123744635,-77.04986288143972,171
219,31261,21st St & Constitution Ave NW,38.892458283111445,-77.04656742339587,63
220,31261,Virginia Ave & C St NW,38.893884673041775,-77.04438984367434,16
221,31262,11th & F St NW,38.89783154687292,-77.02700831961303,155
222,31263,10th & K St NW,38.90241359042949,-77.0262242397181,326
223,31264,6th St & Indiana Ave NW,38.89457880784279,-77.01994471994826,241
224,31265,5th St & Massachusetts Ave NW,38.90092888740577,-77.0186791617696,379
225,31266,11th & M St NW,38.90558172282927,-77.027313845502,504
226,31267,17th St & Massachusetts Ave NW,38.908144032541095,-77.03836999961293,374
227,31268,12th & U St NW,38.91678425741849,-77.02813470813334,182
228,31269,3rd St & Pennsylvania Ave SE,38.887373452907966,-77.00195852471992,318
229,31270,8th & D St NW,38.89484567824724,-77.023237114898,212
230,31271,Constitution Ave & 2nd St NW/DOL,38.89227464713759,-77.01391451397735,377
231,31272,Washington & Independence Ave SW/HHS,38.886982158498775,-77.01376847575165,330
232,31273,Hains Point/Buckeye & Ohio Dr SW,38.8784349996761,-77.0302326936192,151
233,31274,10th & G St NW,38.89825455293598,-77.02623267146866,199
234,31275,New Hampshire Ave & 24th St NW,38.90174982454065,-77.05108412687369,338
235,31276,15th & L St NW,38.90366781576909,-77.03491657731078,202
236,31277,17th & G St NW,38.89830015242874,-77.03970320256904,331
237,31278,18th & R St NW,38.91264595178502,-77.04183984126384,361
238,31279,19th & G St NW,38.8984038678161,-77.04319474377947,159
239,31280,11th & S St NW,38.9137095109927,-77.02704373691834,288
240,31281,8th & O St NW,38.90863781098302,-77.02277658706481,537
241,31282,16th & R St NW,38.91265363281022,-77.03627698485512,267
242,31283,14th & L St NW,38.90366519978748,-77.03173631665652,290
243,31284,18th & C St NW,38.893512536270535,-77.04154136281618,84
244,31285,22nd & P ST NW,38.9093900608825,-77.04872728854396,338
245,31286,11th & O St NW,38.90835794306058,-77.02709809982488,332
246,31287,10th St & L'Enfant Plaza SW,38.884327546323476,-77.02600142879386,203
247,31288,4th St & Madison Dr NW,38.890495589551804,-77.01724712686598,659
248,31289,Henry Bacon Dr & Lincoln Memorial Circle NW,38.89053853965575,-77.04938284227887,634
249,31290,17th St & Independence Ave SW,38.88809812298242,-77.03832614272004,437
250,31291,Vermont Ave & I St NW,38.9011411453645,-77.03445222876229,300
251,31292,22nd St & Constitution Ave NW,38.89244035161519,-77.04894533407474,134
252,31293,Thomas Jefferson St NW & Water/K St NW,38.90282049825124,-77.0601518549807,173
253,31294,7th & E St SW,38.883451216984156,-77.02173810127789,127
254,31295,Potomac & M St NW,38.905496862926675,-77.06522450565183,296
255,31296,Columbia & Ontario Rd NW,38.92408771664954,-77.04076105389454,396
256,31297,Virginia Ave & 25th St NW,38.898633991299775,-77.0532312741258,192
257,31298,15th & M St NW,38.90541601421484,-77.03464843835697,309
258,31299,Connecticut Ave & R St NW,38.9126426966473,-77.04563762484169,324
259,31300,Van Ness Metro / UDC,38.94455136855422,-77.06389400134779,89
260,31301,Ward Circle / American University,38.93874158659775,-77.0871794312688,54
261,31302,Wisconsin Ave & Newark St NW,38.93490429914324,-77.07275381595579,119
262,31303,Tenleytown / Wisconsin Ave & Albemarle St NW,38.9475976731499,-77.07936906232305,94
263,31304,36th & Calvert St NW / Glover Park,38.922583026383236,-77.07032725407349,64
264,31305,Connecticut Ave & Macomb St NW / Cleveland Park,38.93364008860299,-77.05754676434282,117
265,31305,Connecticut Ave & Newark St NW / Cleveland Park,38.93427699404674,-77.05797722790928,29
266,31306,39th & Calvert St NW / Stoddert,38.92264121383015,-77.07724076670092,91
267,31307,3000 Connecticut Ave NW / National Zoo,38.93030230232268,-77.05560619636842,115
268,31308,39th & Veazey St NW,38.94383727031447,-77.07707688316019,55
269,31309,Fessenden St & Wisconsin Ave NW,38.954809946178564,-77.08242564047836,25
270,31310,Connecticut & Nebraska Ave NW,38.955021820145205,-77.06996992604275,57
271,31311,13th & O St NW/ Logan Circle,38.90874173035321,-77.0297749435658,243
272,31312,Wisconsin Ave & O St NW,38.908488289732986,-77.06359610861462,298
273,31313,Connecticut Ave & Tilden St NW,38.94113858363495,-77.06197697455714,63
274,31314,34th & Water St NW,38.90372821913991,-77.06752928350133,179
275,31315,Connecticut Ave & McKinley St NW,38.96454797537191,-77.0751461310763,29
276,31316,Yuma St & Tenley Circle NW,38.94618514584885,-77.08057112218482,26
277,31317,Wisconsin Ave & Ingomar St NW,38.95827124053155,-77.08463093334744,28
278,31318,Connecticut Ave & Yuma St NW,38.94714984297265,-77.06511150092707,39
279,31319,Wisconsin Ave & Brandywine St NW,38.94981719287084,-77.08021488666496,44
280,31320,American University East Campus,38.93629114430444,-77.08712778816037,61
281,31321,15th St & Constitution Ave NW,38.89224501693677,-77.03323191249885,401
282,31322,48th Pl & MacArthur Blvd NW,38.91704186592719,-77.09572635278923,31
283,31323,Woodley Park Metro / Calvert St & Connecticut Ave NW,38.92339332313197,-77.05183027721526,232
284,31324,18th & New Hampshire Ave NW,38.91127080240853,-77.04182755174278,455
285,31325,Reservoir Rd & 38th St NW,38.91263436802414,-77.07432538177525,157
286,31326,Hardy Rec Center,38.909695049662936,-77.08561149964954,52
287,31327,14th & Q St NW,38.910693155327856,-77.03188573116005,354
288,31328,21st St & G st NW,38.89830348591434,-77.04690954522863,308
289,31329,White House,38.89556440322145,-77.03791379033231,8
290,31330,17th & P St NW,38.90985560772418,-77.03855451058297,436
291,31331,Arizona Ave & MacArthur Blvd NW,38.92729068896532,-77.10366202799892,21
292,31332,11th & V St NW,38.91819302126233,-77.02712286780077,136
293,31332,11th & V st NW,38.918192338653164,-77.02712623372169,144
294,31333,Wisconsin Ave & Rodman St NW,38.939676282830966,-77.07527982027064,57
295,31334,Loughboro Rd & Dalecarlia Pkwy NW / Sibley Hospital,38.93585689124193,-77.10685306654291,10
296,31390,Whitehaven Pkwy & Foxhall Rd NW / GWU Mt. Vernon,38.91650250522573,-77.09088558274802,15
297,31400,Georgia & New Hampshire Ave NW,38.93670586059733,-77.02416467745047,192
298,31401,14th St & Spring Rd NW,38.93749187456099,-77.03281548592845,242
299,31402,14th St Heights / 14th & Crittenden St NW,38.947738780850756,-77.0328344014058,34
300,31403,5th & Kennedy St NW,38.95657892255846,-77.01980945813236,39
301,31404,9th & Upshur St NW,38.9417742916621,-77.02509775976283,132
302,31405,Georgia Ave & Emerson St NW,38.949665321275084,-77.0273429136958,25
303,31406,14th & Upshur St NW,38.94248673053512,-77.0326761000191,60
304,31407,14th St & Colorado Ave NW,38.95642354059332,-77.0329554639659,59
305,31408,Takoma Metro,38.97522212368854,-77.0168595908889,86
306,31411,Georgia & Missouri Ave NW,38.96135248910143,-77.02785215893174,53
307,31412,3rd St & Riggs Rd NE,38.957461988602226,-77.00224624842451,30
308,31413,3rd & Underwood St NW,38.9692663933333,-77.0163746792594,25
309,31414,Georgia Ave & Piney Branch Rd NW,38.96751999063351,-77.02796058177358,32
310,31415,Georgia Ave & Kennedy St NW,38.95669572156835,-77.02793609107428,26
311,31416,14th & Luzon St NW,38.969489556410664,-77.03349253430558,15
312,31416,14th St & Luzon Ave NW,38.969491270054725,-77.03349345452632,23
313,31417,Kansas Ave & Sherman Cr NW,38.94798196893775,-77.02150782454642,106
314,31418,New Hampshire & Gallatin St NW,38.95160636540454,-77.01280626781735,59
315,31419,Georgia Ave & Morton St NW,38.93211846422607,-77.0234907247724,175
316,31420,17th & Upshur St NW,38.942164797118394,-77.03867743348984,38
317,31421,Grant Circle,38.94204087239237,-77.01822426303957,86
318,31422,Broad Branch Rd & Northampton St NW,38.96578253480557,-77.06862978643869,16
319,31423,Kansas Ave & Longfellow St NW,38.957993004586925,-77.01371057104824,31
320,31424,9th & Ingraham St NW,38.953731490332395,-77.02561495464879,27
321,31425,Georgia Ave & Dahlia St NW,38.97602206561712,-77.02675869090064,23
322,31426,10th St & Spring Rd NW,38.93623155365948,-77.02713678128737,81
323,31500,4th & W St NE,38.91907329670473,-77.00064530967377,121
324,31501,12th & Newton St NE,38.93369504695118,-76.99103756293957,32
325,31502,John McCormack Dr & Michigan Ave NE,38.934615751063774,-76.99550358842204,42
326,31503,Florida Ave & R St NW,38.912593092877096,-77.01349119935013,236
327,31504,10th & Monroe St NE,38.932461252679616,-76.9935052175882,80
328,31505,Eckington Pl & Q St NE,38.910969312299656,-77.00495236092515,404
329,31506,1st & Rhode Island Ave NW,38.915410929383214,-77.01228044711777,364
330,31507,1st & Washington Hospital Center NW,38.92874777001601,-77.01243174830742,98
331,31508,Gallaudet / 8th St & Florida Ave NE,38.905088558919005,-76.9941370206577,48
332,31509,New Jersey Ave & R St NW,38.91266998634988,-77.01765397981578,225
333,31510,18th St & Rhode Island Ave NE,38.927062329430456,-76.97893913247812,20
334,31511,12th & Irving St NE,38.928652283144636,-76.99094786688978,56
335,31512,Neal St & Trinidad Ave NE,38.90373434236762,-76.98721320979857,71
336,31513,Rhode Island Ave & V St NE,38.91815068807728,-77.00474766215456,48
337,31514,Hamlin & 7th St NE,38.927496533234894,-76.99719559926324,69
338,31515,Fort Totten Metro,38.952368033903994,-77.00270180373579,110
339,31516,Rhode Island Ave Metro,38.920674649371165,-76.99586743582739,78
340,31517,Union Market,38.90791150814272,-76.99706724669262,186
341,31518,New York Ave & Hecht Ave NE,38.91559933570751,-76.983675570603,168
342,31519,1st & O St NW,38.90864543845304,-77.01236657932705,218
343,31520,24th & R St NE / National Arboretum,38.91263005845263,-76.97192730775954,78
344,31521,18th & Monroe St NE,38.93292792461789,-76.97951038029666,20
345,31522,2nd St & Seaton Pl NE,38.914739933438725,-77.00355716210979,111
346,31523,Lincoln Rd & Seaton Pl NE/Harry Thomas Rec Center,38.91498797180743,-77.00779377078845,90
347,31524,Montello Ave & Holbrook Terr NE,38.90743162338029,-76.98682018818417,89
348,31525,Trinidad Rec Center,38.9062943002595,-76.98321401758123,42
349,31526,Rhode Island & Montana Ave NE,38.92429152773046,-76.98592875066119,25
350,31527,North Capitol & R St NE,38.91264866394751,-77.00882774746029,176
351,31528,John McCormack Rd NE,38.938868455525366,-76.99722251685107,43
352,31529,Edgewood Rec Center,38.92409797176455,-77.00210165838601,75
353,31530,Capitol Ave & Kendall St NE,38.91103132705767,-76.98581626358704,33
354,31531,MBT & Bryant St NE,38.92237779640168,-76.99602786750248,256
355,31532,4th & Florida Ave NE,38.90730142395596,-77.00072468289517,499
356,31533,Tanner Park,38.91123420695988,-77.00224811958005,208
357,31534,7th & Monroe St NE,38.93222276617106,-76.99614188704855,61
358,31535,10th & Rhode Island Ave NE,38.92251633333333,-76.99274116666666,1
359,31535,10th St & Rhode Island Ave NE,38.92248246738978,-76.9927129819693,22
360,31536,5th & Morse St NE,38.90728191130301,-76.99916753871773,120
361,31537,Fort Lincoln Dr & 33rd Pl NE,38.921656804282115,-76.95569222283618,7
362,31538,South Dakota Ave & Bladensburg Rd NE,38.92517362930069,-76.96487326067313,7
363,31539,South Dakota Ave & 33rd St NE,38.92200617891892,-76.96071707013557,3
364,31540,3rd & N St NE,38.90706845572993,-77.002074707457,86
365,31541,10th & Quincy St NE / Turkey Thicket Rec,38.93786829327379,-76.99347385479568,35
366,31542,12th & Varnum St NE,38.94359370865842,-76.99020265807964,13
367,31543,24th St & Rhode Island Ave NE,38.93079981049891,-76.97285966558391,9
368,31600,5th & K St NW,38.90304162302816,-77.01902827614617,601
369,31601,19th & East Capitol St SE,38.88960033542174,-76.97689894527299,90
370,31602,Park Rd & Holmead Pl NW,38.93080206650126,-77.03145784580543,340
371,31603,1st & M St NE,38.9056872452707,-77.00548843347664,685
372,31604,3rd & H St NW,38.89940870956562,-77.0152583106271,246
373,31605,3rd & D St SE,38.88510442371152,-77.00229343524873,176
374,31606,Potomac & Pennsylvania Ave SE,38.880299933580815,-76.98620418124582,198
375,31607,13th & E St SE,38.88291657254228,-76.98790164783685,79
376,31608,8th & Eye St SE / Barracks Row,38.879203619443224,-76.99529568118567,124
377,31609,Maine Ave & 7th St SW,38.87869887538599,-77.02305544324585,411
378,31610,Eastern Market / 7th & North Carolina Ave SE,38.88695302385376,-76.99680778962845,316
379,31611,13th & H St NE,38.90043614504286,-76.98825093670915,263
380,31612,D St & Maryland Ave NE,38.89484382714669,-76.99591439623636,225
381,31613,Eastern Market Metro / Pennsylvania Ave & 8th St SE,38.8840963454339,-76.99524042361529,662
382,31615,6th & H St NE,38.899972607755345,-76.99835902192703,467
383,31616,3rd & H St NE,38.90041327026854,-77.00197240149163,338
384,31617,Bladensburg Rd & Benning Rd NE,38.90041794157194,-76.98287971235912,68
385,31618,4th & East Capitol St NE,38.889955411598535,-77.00035107712853,239
386,31619,Lincoln Park / 13th & East Capitol St NE ,38.89046436389755,-76.98835995059166,287
387,31620,5th & F St NW,38.89722768689573,-77.01933627157338,221
388,31621,4th & D St NW / Judiciary Square,38.89537497115829,-77.01610341397692,82
389,31622,13th & D St NE,38.89483343485844,-76.9876325901092,206
390,31623,Columbus Circle / Union Station,38.89697311254924,-77.00492314545495,846
391,31624,North Capitol St & F St NW,38.897442068626475,-77.00988116514938,251
392,31625,3rd & G St SE,38.88118546038023,-77.00182427828682,237
393,31626,15th St & Massachusetts Ave SE,38.88731826399196,-76.98356825248528,155
394,31627,3rd & M St NE,38.905471013576545,-77.0021326775733,413
395,31627,M St & Delaware Ave NE,38.90565770395441,-77.00314571531499,429
396,31628,1st & I St SE,38.87885133444249,-77.00575321666147,421
397,31628,1st & K St SE,38.87884436607182,-77.00577526405282,227
398,31629,8th & East Capitol St NE,38.889986937761016,-76.99518975202439,148
399,31630,15th & East Capitol St NE,38.88990922859545,-76.98334014955687,139
400,31631,8th & F St NE,38.89727248911863,-76.99474865135707,230
401,31632,15th & F St NE,38.89718390946713,-76.9835739415215,124
402,31633,Independence Ave & L'Enfant Plaza SW/DOE,38.88731130679026,-77.02576446516771,174
403,31634,3rd & Tingey St SE,38.87500954797971,-77.00241328876092,181
404,31635,Potomac Ave & 8th St SE,38.87673715506314,-76.99446628480622,84
405,31636,New Jersey Ave & N St NW/Dunbar HS,38.907339563914086,-77.01535925972165,208
406,31637,North Capitol St & G Pl NE,38.89970341456364,-77.00893891017552,111
407,31638,1st & H St NW,38.90035757789697,-77.01212380467899,192
408,31639,2nd & G St NE,38.89966783567451,-77.00363890412358,267
409,31640,Maryland Ave & E St NE,38.89621165897273,-76.99279721285785,226
410,31641,2nd St & Massachusetts Ave NE,38.89497258154169,-77.00313818019745,307
411,31642,4th St & K St NW,38.90240262878251,-77.01599449469083,116
412,31642,New Jersey Ave & K St NW,38.902580281575894,-77.01372114820778,150
413,31643,1st & D St SE,38.88491472923901,-77.0059630621194,260
414,31644,12th St & Pennsylvania Ave SE,38.882491567868094,-76.99012107936484,140
415,31645,6th & K St NE,38.902945252090205,-76.99840413814462,194
416,31646,Maine Ave & 9th St SW,38.88043707899194,-77.02523149341164,397
417,31647,7th St & Massachusetts Ave NE,38.89221694924437,-76.99601083106558,151
418,31648,Potomac Ave & Half St SW,38.869681254835456,-77.0108117229018,81
419,31649,14th & Newton St NW,38.93200023314152,-77.03296141850659,227
420,31650,1st & M St SE,38.876922196555164,-77.00602805059391,299
421,31651,11th & Park Rd NW,38.93133780198928,-77.02824021942271,234
422,31652,4th & M St SE,38.876750037037084,-77.00072324936018,209
423,31653,7th & K St NW,38.90266631910088,-77.02140135145996,446
424,31654,King Greenleaf Rec Center,38.876211420999894,-77.01243782187547,74
425,31655,New Jersey Ave & F St NW,38.89711229524344,-77.0116222494323,388
426,31656,Maryland Ave & 17th St NE,38.90193653032345,-76.97863206873436,90
427,31657,Massachusetts Ave & 6th St NE,38.89293772401424,-76.99827347660734,200
428,31658,Rosedale Rec Center,38.89781666510302,-76.97963414252838,65
429,31659,11th & C St SE,38.885904723809475,-76.99147845690936,148
430,31660,8th & K St NE,38.90272285751034,-76.99515138585899,137
431,31661,8th & H St NE,38.89992420541286,-76.9948928937502,176
432,31662,1st & K St NE,38.90239576070703,-77.0056519118249,357
433,31663,14th & D St SE,38.88405691149757,-76.98634567416741,204
434,31664,Half & Water St SW,38.866284082852474,-77.01054710478874,90
435,31665,Stadium Armory Metro,38.88549535426125,-76.97718380979353,65
436,31666,4th & G St SW,38.881110962390515,-77.01770076343833,232
437,31666,4th St & G St SW,38.88112086787224,-77.01765672119443,158
438,31667,2nd & V St SW / James Creek Marina,38.86373598986157,-77.01381033529017,90
439,31668,1st St & Potomac Ave SE,38.87184013573145,-77.005912698705,193
440,31669,3rd & M St SE,38.87682834048726,-77.00212025662144,79
441,31669,3rd & M st SE,38.87682421210782,-77.00212682360622,63
442,31670,12th St & New York Ave NW,38.90110922489628,-77.0280754876429,132
443,31671,53rd & D St SE/C.W. Harris Elementary,38.88334370444017,-76.92530541850792,6
444,31672,10th & H St NE,38.899980982717246,-76.99271934735081,167
445,31673,Waterfront Park,38.87482030076374,-77.02079054791544,55
446,31674,Maine Ave & Water St SW,38.87674180671684,-77.02094186651989,93
447,31675,North Capitol & K St NE,38.90244127183862,-77.00824436440476,71
448,31676,1st & Q St SW,38.870821194460056,-77.01192738425753,51
449,31677,1st & L St NW,38.90382377405657,-77.01196259521484,54
450,31678,4th & O St SW,38.87296595063761,-77.01758938899646,93
451,31700,Good Hope & Naylor Rd SE,38.86164733027643,-76.96916723923283,8
452,31701,Branch & Pennsylvania Ave SE,38.86920742243352,-76.95970111666387,12
453,31702,Randle Circle & Minnesota Ave SE,38.878018954962215,-76.96071422156064,6
454,31703,Minnesota Ave Metro/DOES,38.89705237605077,-76.94743730288776,12
455,31704,Nannie Helen Burroughs & Minnesota Ave NE,38.9013844028076,-76.94188439570691,6
456,31705,Benning Branch Library,38.89399158414464,-76.94796563799952,8
457,31706,Fairfax Village,38.865587007929335,-76.9521087720445,3
458,31707,Benning Rd & East Capitol St NE / Benning Rd Metro,38.88995375160826,-76.93723412461351,17
459,31708,Anacostia Ave & Benning Rd NE / River Terrace ,38.89654300193934,-76.9601181026016,34
460,31710,Nannie Helen Burroughs Ave & 49th St NE,38.898530000782664,-76.93186880960566,8
461,31711,Deanwood Rec Center,38.9084476347323,-76.93310553758297,9
462,31712,Oklahoma Ave & D St NE,38.894469045194455,-76.97483548288506,77
463,31713,Division Ave & Foote St NE,38.89741551083507,-76.92590769405585,5
464,31714,61st St & Banks Pl NE,38.89181304587767,-76.91357443733044,7
465,31715,37th & Ely Pl SE,38.883006278655344,-76.9497196586709,3
466,31716,Kingman Island/The Fields at RFK,38.89595382869064,-76.96784610345215,36
467,31717,Kenilworth Terr & Hayes St. NE,38.90045227287535,-76.94728954209143,7
468,31717,Kenilworth Terrace & Hayes St. NE,38.900454808405,-76.94729328431745,4
469,31718,Ridge Rd Community Center,38.876137977524486,-76.94080767061742,2
470,31719,Oklahoma Ave & Benning Rd NE,38.897481758858866,-76.9695047791443,33
471,31720,Anacostia Roller Skating Pavilion,38.87876483121676,-76.97093223750444,26
472,31720,Anacostia Roller Skating Pavillion,38.87876911382354,-76.97093076244201,28
473,31721,Anacostia Ave & East Capitol St NE,38.89045153095513,-76.96128154496168,9
474,31722,Woody Ward Rec Center,38.87957802138889,-76.92662128311112,2
475,31723,Ridge Rd & Southern Ave SE,38.87297994345098,-76.9352639993268,2
476,31724,41st St & Alabama Ave SE / Fort Davis Rec,38.8703443974359,-76.94528588461539,1
477,31800,Alabama & MLK Ave SE,38.8432294290008,-76.99938850592872,10
478,31801,Anacostia Metro,38.86268027882649,-76.99466827411295,28
479,31802,Good Hope Rd & MLK Ave SE,38.86736833753626,-76.98804086522664,25
480,31803,Good Hope Rd & 14th St SE,38.866610059092295,-76.98522507802682,11
481,31804,Anacostia Library,38.86578310087151,-76.97840299372805,9
482,31805,Pennsylvania & Minnesota Ave SE,38.87306463380179,-76.97101936688962,12
483,31806,Congress Heights Metro,38.844711505176676,-76.98782825961185,15
484,31807,Pleasant St & MLK Ave SE,38.86389526515113,-76.99002553921314,11
485,31811,South Capitol & Atlantic St SW,38.8315210573293,-77.00814644255273,9
486,31812,16th & Q St SE / Anacostia HS,38.87069403997127,-76.98235943658379,10
487,31813,Alabama Ave & Stanton Rd SE / Shops at Park Village,38.84627367068103,-76.98184312721446,7
488,31814,Mississippi Ave & 19th St SE / THEARC,38.843767054199866,-76.97557053907097,4
489,31815,19th & Savannah St SE,38.84622880681818,-76.97703338762626,1
490,31816,4th St & Mississippi Ave SE,38.83600822811438,-77.0008897093754,8
491,31817,1st & S Capitol St SE / Oxon Run Trail,38.82447567906958,-77.00548516329265,10
492,31818,Livingston Rd & 3rd St SE,38.823735399975284,-77.0022253756665,5
493,31819,Joliet St & MLK Ave SW/Bald Eagle Rec Ctr,38.819088507567905,-77.01035323121481,3
494,31820,Anacostia Park,38.873346174807594,-76.98339757504571,34
495,31822,Stanton Square SE,38.85500206602837,-76.98447199987213,6
496,31823,United Medical Center,38.835741777777784,-76.98315097323233,2
497,31824,Valley Ave & Wheeler Rd SE,38.836667344123946,-76.99358659801783,4
498,31825,Fort Stanton Rec Center,38.857320843643855,-76.97772575632418,4
499,31826,Minnesota Ave & R St SE,38.86934983914262,-76.97852450868749,13
500,31827,St. Elizabeths West Campus/DHSÂ ,38.85313001972413,-77.00517369352197,18
501,31828,New Jersey Ave & H St SE,38.88071808887989,-77.00576206301977,145
502,31829,16th & Bangor St SE,38.86049413707557,-76.98357459189815,3
503,31830,South Capitol St and Southern Ave SE,38.82160074250308,-77.00125430549572,5
504,31900,Langston Blvd & N Woodstock St,38.89830477735843,-77.11801117672665,23
505,31901,Washington Blvd & N Frederick St,38.88483143680117,-77.12767922420197,7
506,31902,Wilson Blvd & N Illinois St ,38.87652775591949,-77.12711352355225,21
507,31903,Royal St & Wilkes St,38.799267413262264,-77.04469819143817,27
508,31904,East Falls Church Metro / Sycamore St & 19th St N,38.885344068828104,-77.15643426027458,58
509,31905,Kennebec St & 11th St N,38.88099711485812,-77.1352642622559,23
510,31906,Commonwealth Ave & Oak St,38.81270027349258,-77.06171436143657,10
511,31907,Franklin St & S Washington St,38.79813528607147,-77.04871011025614,22
512,31908,Kenwood Ave & Osage St,38.82797370794567,-77.08477379799383,8
513,31908,Radford St & Osage St,38.828447141492774,-77.08602919076071,5
514,31909,Mount Vernon Ave & Four Mile Run Park,38.84342271706512,-77.0640152720524,24
515,31910,Potomac Ave & Main Line Blvd,38.82273720815506,-77.04927655358578,20
516,31912,Mount Vernon Ave & Bruce St,38.84129380969633,-77.06308767539225,14
517,31913,Commonwealth Ave & E Monroe Ave,38.82005776935892,-77.06281618041673,21
518,31914,Lee Center,38.79755823691723,-77.05376832998988,8
519,31915,Powhatan St & Bashford Ln,38.81874928112439,-77.04778161311437,27
520,31916,Potomac Ave & Swann Ave,38.829546138253065,-77.04784441254255,38
521,31917,N Lynn St & Fairfax Dr,38.89384162620508,-77.07086550180107,89
522,31918,Madison St & Fairfax St,38.81235135105184,-77.040689135148,43
523,31919,Carlin Springs Rd & N Thomas St,38.87669667584465,-77.11298072240884,34
524,31920,Washington-Liberty High School / N Stafford St & Generals Way,38.88828196595036,-77.11106775795001,33
525,31921,Westover Library / Washington Blvd & N McKinley Rd,38.886040609502366,-77.14231039243906,10
526,31923,Columbia Pike & George Mason Dr,38.859329391579976,-77.10203083475673,15
527,31923,Columbia Pike & S George Mason Dr,38.859324087301864,-77.10203033116315,13
528,31924,Wilson Blvd & N Troy St,38.89255334585872,-77.08208693686728,49
529,31926,Wilson Blvd & N Vermont St,38.879472126616676,-77.11454661446615,23
530,31926,Wilson Blvd. & N. Vermont St.,38.8794752382463,-77.11455452914176,18
531,31927,Wheeler Ave & S. Floyd St.,38.808157553728726,-77.10077995096715,6
532,31928,N. Beauregard St. & Berkley St.,38.84137131495193,-77.10800490054446,12
533,31929,Mt Vernon Trail & S. Washington St.,38.793063867626635,-77.04942290644591,67
534,31930,Eisenhower Ave & Ike Dr,38.80272292915017,-77.08321571795425,11
535,31931,N Pitt St & Montgomery St,38.814033229151384,-77.04280672100327,35
536,31932,Van Dorn Metro,38.8001353656038,-77.12996729546278,4
537,31933,Duke St & Strand (Robinson Terminal),38.801944799205415,-77.04029039774184,22
538,31935,National Airport,38.852938012672276,-77.04594756870236,49
539,31936,Army Navy Dr & Fern St,38.864835912960025,-77.05687610965153,18
540,31936,Fern St & Army Navy Dr,38.864835827057895,-77.05687648353334,26
541,31937,Arlington Blvd & Ft Myer Dr,38.89085972999209,-77.07489049093859,58
542,31938,23rd St S & Hayes St,38.85299924825246,-77.05949701033386,41
543,31939,Wilson Blvd & N Oak St,38.89506948345359,-77.07380994657377,67
544,31940,Arlington Blvd & Fairfax Dr,38.88626248766534,-77.08425708582146,43
545,31941,N Hampton Dr & Ford Ave,38.83730379870789,-77.10611338398184,7
546,31942,Whiting & Lane Dr,38.80974021981537,-77.13581682785014,4
547,31943,N Howard St & Taney Ave,38.81583108913131,-77.11005112339541,6
548,31944,S Clark St & 33rd St,38.84502209415258,-77.05191646806901,40
549,31945,Columbia Pike & S Greenbrier St,38.85401407578353,-77.11812584622986,11
550,31946,Kenmore Ave & Seminary Rd,38.82890388898408,-77.11058047772423,6
551,31947,Rosslyn Metro / Wilson Blvd & N Moore St,38.89607911600109,-77.07146206049691,169
552,31948,W&OD Trail & Langston Blvd,38.88714433892202,-77.16210529691128,24
553,31949,Columbia Pike & S Scott St/12th St S,38.86354576622614,-77.07720556254627,18
554,31950,Long Bridge Aquatic Center,38.87056145924045,-77.04409468043578,33
555,31951,8th Rd & S Frederick St,38.8570495464112,-77.11634386688371,7
556,31952,N Howard St & N Imboden St,38.81848787908567,-77.10559107851148,3
557,31953,S Pickett St & Shillings St,38.804482338965805,-77.13231774702363,12
558,31954,S Jordan St & Venable St,38.81136942398552,-77.10996810270443,5
559,31955,King St & Peyton St,38.80600419913432,-77.05591941964639,19
560,31956,Reed & Edison,38.83727887927511,-77.06089683489883,14
561,31956,Reed and Edison,38.837283223214285,-77.0609007827381,3
562,31957,King St & Kenwood Ave,38.824786317120214,-77.08505587211913,4
563,31958,S Washington St & Wilkes St,38.800700723032044,-77.04803590812604,9
564,31959,Main Line Blvd & E Glebe,38.8324132384537,-77.04976977340303,89
565,31960,Commonwealth and Reed,38.836845965624704,-77.05726778338196,53
566,31961,Fillmore & Bisdorf,38.83861412961189,-77.11618538570059,4
567,31962,King St & W Braddock Rd,38.827688147758664,-77.08898489723416,7
568,31963,Holmes Run Pkwy & N Pickett St,38.81430596219088,-77.1189275941138,10
569,31964,Virginia Theological Seminary,38.82016058196634,-77.09394411737624,6
570,31966,Duke St & Jordan St,38.81219367635532,-77.10993176508605,8
571,31967,S Reynolds St & Edsall Rd,38.80960123228968,-77.12891927054321,5
572,31968,King St & N Pitt St,38.8048018192287,-77.0446685042431,55
573,31969,Braddock Rd Metro South,38.81347646225787,-77.05373380997479,82
574,31970,First St & Fayette St,38.81701767361033,-77.05010020620385,31
575,31970,First and Fayette,38.817019,-77.050105,5
576,31971,Penrose Sq/Columbia Pike & S Barton St,38.86351649636224,-77.08423976882486,27
577,31972,S Wakefield St & 28th Rd S,38.84403535264842,-77.09809233392015,7
578,31972,S Wakefield St & 28th St S,38.844037156859436,-77.09808797178579,7
579,31973,N Pershing Dr & N Quebec St,38.874262817421126,-77.10481787626925,15
580,31973,N Pershing Dr & Quebec St,38.87425449859509,-77.10480090801383,13
581,31974,Mandeville Ln & Stovall St,38.802888188239244,-77.07256883092016,12
582,31976,Virginia Hospital Center,38.88794790744888,-77.12801343273806,8
583,31977,Marymount University / Yorktown Blvd & 26th St N,38.90423518208248,-77.12778283352388,4
584,31978,Arlington National Cemetery,38.88452829429258,-77.06579969621676,195
585,32000,Norfolk Ave & Fairmont St,38.98856876469913,-77.096542695282,26
586,32001,Fenton St & New York Ave ,38.98539667150811,-77.02308236295072,21
587,32002,Bethesda Ave & Arlington Rd,38.981098493545474,-77.097421278758,50
588,32003,Montgomery Ave & Waverly St ,38.983841221818814,-77.09221313833916,16
589,32004,Fallsgrove Blvd & Fallsgrove Dr,39.096308349703015,-77.19266736481401,5
590,32005,Traville Gateway Dr & Gudelsky Dr,39.09375843382258,-77.20250576876464,3
591,32006,13th St & Eastern Ave,38.986998377481086,-77.02941212343259,15
592,32007,E Montgomery Ave & Maryland Ave,39.084124039877146,-77.15128288756729,6
593,32008,Cordell & Norfolk Ave,38.98954813163193,-77.09802540269877,24
594,32009,Frederick Ave & Horners Ln,39.094771006638155,-77.14522116373902,3
595,32010,Philadelphia & Maple Ave,38.98127253936622,-77.01132257838721,7
596,32011,Maple & Ritchie Ave,38.98362631870282,-77.00631899476691,12
597,32012,Silver Spring Metro / Colesville Rd & Wayne Ave,38.99522587982088,-77.02913860747617,21
598,32013,Montgomery & East Ln,38.98352476525678,-77.09535431538524,17
599,32014,Friendship Hts Metro / Wisconsin Ave & Wisconsin Cir,38.961751499952626,-77.08601272310528,47
600,32016,Fallsgrove Dr & W Montgomery Ave,39.09938724457847,-77.18799616964337,6
601,32017,Monroe St & Monroe Pl,39.08367477107382,-77.14915312644985,5
602,32018,Needwood Rd & Eagles Head Ct,39.123511078939345,-77.15740954905213,3
603,32019,East West Hwy & Blair Mill Rd,38.99026591260371,-77.02938513430561,17
604,32021,47th & Elm St,38.98245203115263,-77.09199040867193,19
605,32022,Dennis Ave & Amherst Ave,39.02539069290309,-77.04455582521426,6
606,32023,Montgomery College / W Campus Dr & Mannakee St,39.095663861486315,-77.15904280330005,4
607,32024,Fenton St & Gist Ave,38.989717414346906,-77.02385217321655,23
608,32025,Carroll & Westmoreland Ave,38.975001751710614,-77.01120676874109,26
609,32026,Carroll & Ethan Allen Ave,38.97793750058734,-77.00643900921841,35
610,32027,Battery Ln & Trolley Trail,38.99237638371306,-77.10010373929703,35
611,32028,Norfolk & Rugby Ave,38.9906369419251,-77.10024030597774,16
612,32029,Offutt Ln & Chevy Chase Dr,38.97710351014861,-77.0945917046652,19
613,32032,Fleet St & Ritchie Pkwy,39.0763366199865,-77.1413839458255,5
614,32033,Piccard & W Gude Dr,39.10221102460695,-77.17709276235972,3
615,32034,Silver Spring Transit Center - Top Level,38.99403416840723,-77.03038967894881,15
616,32035,Georgia Ave & Spring St,38.999388863035584,-77.03155999629666,8
617,32036,Fenton St & Ellsworth Dr ,38.99700055278933,-77.02557470281695,22
618,32037,King Farm Blvd & Pleasant Dr,39.114677247605165,-77.17150285966667,9
619,32038,King Farm Blvd & Piccard Dr,39.110314026304145,-77.18268324641083,7
620,32039,Old Georgetown Rd & Southwick St,38.99963331874142,-77.1096474428861,23
621,32040,Friendship Blvd & Willard Ave,38.96116700174758,-77.0886627156115,25
622,32041,Medical Center Dr & Key West Ave,39.103093448201854,-77.19644356400927,2
623,32042,Shady Grove Hospital,39.097638260869566,-77.1966377536232,1
624,32043,Veterans Pl & Pershing Dr ,38.99745267994035,-77.0239022132271,10
625,32044,Rockville Metro East,39.085394789324525,-77.14581102054122,5
626,32045,Shady Grove Metro West,39.119774586234904,-77.16607671643486,12
627,32046,River Rd & Landy Ln,38.96499541889978,-77.10337683164244,49
628,32047,Rockville Metro West,39.0843949874793,-77.14688398151561,4
629,32048,Bethesda Metro / Wisconsin Ave & Old Georgetown Rd,38.984681753163926,-77.09453526615695,35
630,32049,WAU / Flower Ave & Division St,38.98673498001821,-77.00002524125843,16
631,32050,Spring St & 2nd Ave,38.99764496270789,-77.03450575353041,4
632,32051,Connecticut Ave & Chevy Chase Lake Dr,38.994113159742994,-77.07697431577368,11
633,32052,Key West Ave & Siesta Key Way,39.10529599380626,-77.19477670541902,5
634,32053,Medical Center Metro ,38.99938151211801,-77.09788977180314,19
635,32054,Lyttonsville Rd & Lyttonsville Pl,38.99967522487975,-77.0511775330661,7
636,32055,Woodmont Ave & Strathmore St,38.97987310820816,-77.093515467347,57
637,32056,East West Hwy & 16th St,38.99568013252288,-77.0387189495192,14
638,32057,Pooks Hill Rd & Linden Ave,39.01472963925722,-77.10718554462585,8
639,32058,Sligo Ave & Carroll Ln,38.99087585522805,-77.01629960467814,10
640,32059,Takoma Park Rec Center,38.98263618525865,-76.98832309787106,4
641,32061,New Hampshire & Kirklynn Ave,38.98810221952307,-76.98842764921433,6
642,32062,Wheaton Metro / Georgia Ave & Reedie Dr,39.03841060445923,-77.05101760797048,13
643,32063,Amherst Ave & Elkins St,39.044886321622585,-77.04778830960177,6
644,32064,Amherst Ave & Prichard Rd,39.035956637726166,-77.04839390253758,4
645,32065,Grandview & Blueridge Ave,39.043270739898354,-77.05308404003844,5
646,32066,Windham Ln & Amherst Ave,39.03202981479094,-77.04734504905412,8
647,32067,Shady Grove Metro East,39.121319049187356,-77.16496802834138,4
648,32068,Columbus Ave & Tribeca St,39.12582859193904,-77.1670629305362,3
649,32069,Columbus Ave & Gramercy Blvd,39.12333083973064,-77.16485946279462,2
650,32070,Key West Ave & Great Seneca Hwy,39.10564474701441,-77.20386559363581,3
651,32071,Corporate Blvd & Omega Dr,39.107005875155146,-77.19262654554932,4
652,32072,Key West Ave & Diamondback Dr,39.106154390650794,-77.20236411024761,2
653,32073,Blueridge Ave & Elkin St,39.04314769721966,-77.05004946047676,4
654,32074,Twinbrook Metro,39.06203998510504,-77.120770902166,12
655,32075,North Bethesda Metro,39.04752096131399,-77.11286129941567,12
656,32075,White Flint Metro,39.04752781943231,-77.11286312853981,6
657,32076,Citadel Ave & McGrath Blvd,39.0489945694684,-77.10933185979982,13
658,32077,Rockville Pike & Old Georgetown Rd,39.049763160859996,-77.11367942815927,8
659,32078,Woodglen Dr & Executive Blvd,39.04317208017252,-77.11349628828728,12
660,32079,Executive Blvd & E Jefferson St,39.048724283550996,-77.1256927358838,7
661,32080,Fishers Ln & Rock Creek Mill Rd,39.0628926374983,-77.11345179343712,4
662,32081,Congressional Ln & E Jefferson St,39.06218806247607,-77.12924185161235,9
663,32082,Garland Ave & Walden Rd,39.00047202218911,-77.00077628475046,7
664,32084,Wheaton Library & Community Rec Center,39.047305424232896,-77.05108864412637,7
665,32085,The Shoppes @ Burnt Mills,39.0313624569248,-77.00412960991858,3
666,32086,Briggs Chaney & Castle Dr,39.08163603355977,-76.94550194447103,6
667,32087,White Oak Rec Center,39.04613816090328,-76.97571176732433,3
668,32088,Briggs Chaney Park & Ride,39.07787461171717,-76.94186718633838,4
669,32089,New Hampshire & Lockwood,39.039122519364014,-76.99181951677964,4
670,32090,Stewart & April,39.044924822585045,-76.98112844170934,4
671,32091,Stewart Ln & Old Columbia Pike,39.045644854023195,-76.98543984861064,3
672,32092,Castle Blvd & Castle Ln,39.0853057191884,-76.94054709408258,6
673,32093,White Oak Transit Center,39.04103967796591,-76.98712914900437,4
674,32094,Oak Leaf & Lockwood,39.03807234142969,-76.99454260741636,5
675,32200,Spring Hill Metro,38.92926913063653,-77.24071070987794,5
676,32201,Westpark Dr & Leesburg Pike,38.92402816236233,-77.23597910930225,5
677,32203,Tysons Metro South,38.91947932237772,-77.2211886996636,7
678,32203,Tysons One Pl & Chain Bridge Rd,38.91949201808459,-77.2211862632501,5
679,32204,Tysons Corner Station,38.920936341721095,-77.22211640966528,13
680,32204,Tysons Metro North,38.92122583992702,-77.2206760205582,21
681,32205,Westpark & Jones Branch Dr,38.92441195729793,-77.21764932940812,7
682,32206,Jones Branch & Westbranch Dr,38.93190943252124,-77.21925996410845,3
683,32207,Westpark & Park Run Dr,38.92890732868819,-77.22530636593426,5
684,32208,Tysons West Transit Center,38.93263601235125,-77.23182906201075,3
685,32209,North Shore & Cameron Crescent Dr/Crescent Apartments,38.97007280549239,-77.33867347604435,5
686,32210,Town Center Pkwy & Bowman Towne Dr,38.962524370555556,-77.36190216972223,3
687,32211,Greensboro Metro East,38.92068538057755,-77.23314054858095,3
688,32211,Reston Regional Library,38.962096036290326,-77.35881350537635,2
689,32212,New Dominion Pkwy & Fountain Dr,38.96057379709573,-77.35632245108364,5
690,32213,Sunset Hills & Old Reston Ave,38.955074583625,-77.35164325541666,7
691,32213,W&OD Trail/Sunset Hills Rd & Old Reston Ave,38.9550685138301,-77.35163330868899,16
692,32214,Reston Town Center Transit Station,38.957036314790834,-77.35971849145409,10
693,32214,W&OD Trail & Explorer St/Reston Bus Station,38.95703631079941,-77.35971827235204,13
694,32215,Wiehle Ave & Reston Station Blvd,38.946608874359136,-77.33939371407521,9
695,32215,Wiehle-Reston Metro South,38.9466286267601,-77.33939618887551,7
696,32216,Library St & Freedom Dr,38.95963325813469,-77.35873537948926,8
697,32217,Sunset Hills Rd & Discovery Square,38.95534061157475,-77.35761187849167,4
698,32218,Temporary Rd & Old Reston Ave,38.960082780435464,-77.35341905325951,6
699,32219,Reston YMCA,38.95531409719597,-77.3684146320465,11
700,32220,Sunset Hills Rd & Isaac Newton Square,38.95144134792227,-77.34037040011351,14
701,32220,W&OD Trail/Sunset Hills Rd & Isaac Newton Sq,38.95151016184848,-77.33844364352953,21
702,32221,Greensboro & International Dr,38.923010794022524,-77.22750445554185,4
703,32222,Towers Crescent Dr & Tysons One Pl,38.91523943620626,-77.22017812091256,3
704,32223,North Shore Dr & Village Rd,38.97041244387432,-77.34078938381779,4
705,32224,Town Center Pkwy & Sunset Hills Rd,38.95519026020034,-77.36309019311227,6
706,32225,Reston Pkwy & Spectrum Dr,38.96421428125926,-77.35361794573454,5
707,32227,Greensboro & Pinnacle Dr,38.922449924976554,-77.23034455808535,4
708,32228,Campus Commons,38.944721974995396,-77.33541731289247,2
709,32229,Park Run & Onyx Dr,38.9275771491627,-77.22635750343828,20
710,32230,McLean Metro,38.924036188838436,-77.20800340801384,10
711,32231,Dunn Loring Metro,38.882773297548106,-77.2282750277382,15
712,32232,West Falls Church Metro,38.90012128884559,-77.188705850511,9
713,32233,Jones Branch Drive & Scotts Crossing Rd,38.928425635876145,-77.2156675749681,5
714,32234,Merrilee Dr & Lauren Elizabeth Lane,38.87920870014161,-77.23069835385886,8
715,32235,Merrifield Cinema & Merrifield Town Center,38.870098385081505,-77.22995060458186,12
716,32236,Vy Reston Heights,38.949037144730106,-77.35470241181358,7
717,32237,Baron Cameron Ave & North Hampton Ave,38.9663434648673,-77.35934040544984,5
718,32238,Ridge Heights Rd & Seahawks Dr,38.936058717098064,-77.33777782293997,7
719,32239,Becontree Ln & Goldenrain Ct,38.966853378935284,-77.32928092904721,3
720,32240,Ring Rd & North Shore Dr,38.970802920289856,-77.32676139130436,3
721,32241,Reston Pkwy & Bennington Woods Rd,38.97362563204569,-77.3518331814865,4
722,32242,Inlet Ct & Wiehle Dr,38.96597656965604,-77.33435415749919,3
723,32243,Fairway Dr & Hook Rd,38.96331251190476,-77.34254564285713,2
724,32243,Reston Town Center Metro North,38.95368736709586,-77.35971561229668,9
725,32244,Vantage Hill Rd & Wainwright Dr,38.96669885529101,-77.34849275158732,2
726,32245,Links Dr & Wedge Dr,38.959023723073344,-77.33929150586317,3
727,32246,Golf Course Sq and Golf Course Dr,38.94401101099468,-77.35355147504373,4
728,32247,South Lakes Dr and Reston Pkwy,38.943349002564105,-77.36230518689459,3
729,32248,Olde Crafts Dr and Cartwright Pl,38.93880597104038,-77.35406021766481,3
730,32249,Green Range Dr and Glade Dr,38.93714484760517,-77.36788880666019,3
731,32250,South Gate Community Center,38.941492637852996,-77.36650043690884,3
732,32251,Lake Newport Rd and Autumn Ridge Cir,38.97850284388205,-77.3534555748819,4
733,32252,Ridge Heights and Owl Cove Ln,38.93392262145202,-77.3316533335505,5
734,32253,Soapstone Dr Convenience Center,38.93050971577989,-77.34587363968063,5
735,32255,Hartland Rd & Harte Pl,38.8786100364414,-77.2228088838736,6
736,32256,North Village and Park Garden,38.98319987841808,-77.3418228220656,3
737,32258,Reston Town Center Metro South,38.95236099463982,-77.35983550984753,4
738,32259,N Shore Dr & Wainwright Dr,38.9631593605,-77.34929138702499,3
739,32260,Vienna Metro South,38.87741241279666,-77.27082402647461,7
740,32261,Vaden Dr & Royal Victoria Dr/Providence Community Center,38.873259016661216,-77.27301454196203,4
741,32262,District Ave & Strawberry Ln/Mosaic Market Garage,38.87269238360256,-77.23048407409149,14
742,32263,Gatehouse Rd & Telestar Ct,38.86847323161111,-77.22524547222777,3
743,32264,Pimmit Dr & Idyl Ln,38.89768361735606,-77.2072229788106,12
744,32265,Pimmit Dr & Los Pueblos Ln,38.90024147547222,-77.20553051847222,8
745,32266,Emma Lee St & Morris St,38.87781527435715,-77.20941704328573,4
746,32267,Route 29 & Bisvey Dr,38.87691871814285,-77.19580665864285,4
747,32268,Arlington Blvd & Allen St,38.866315,-77.199799,2
748,32269,Jones Branch Dr & Blyton St,38.9269533664,-77.2173960936,5
749,32270,Westbranch Dr & Jones Branch Dr,38.931089,-77.220729,1
750,32400,1301 McCormick Dr / Wayne K. Curry Admin Bldg,38.90839375011712,-76.84325854213513,2
751,32401,Largo Town Center Metro,38.89980878953715,-76.84460303938376,5
752,32402,Baltimore Ave & Van Buren St / Riverdale Park Station,38.96958508716453,-76.93734841570027,29
753,32403,Baltimore Ave & Jefferson St,38.95548553534316,-76.94012961263127,20
754,32404,Perry & 35th St,38.936212196029075,-76.96006059775259,11
755,32405,Largo Rd & Campus Way / Prince Georges's Comm Col,38.8899379655544,-76.82553808357702,5
756,32406,Fleet St & Waterfront St,38.78263931500944,-77.01606194442853,20
757,32407,Oxon Hill Park & Ride,38.7987477905138,-77.00103313961473,5
758,32408,Oglethorpe St & 42nd Ave,38.95936097880335,-76.94629554397036,17
759,32409,Southern Ave Metro,38.84010457417595,-76.97529662435778,4
760,32410,Queens Chapel & Hamilton St,38.95461850507138,-76.95953318330183,16
761,32411,Northwestern High School,38.97550657266243,-76.95219847515375,7
762,32412,New Hampshire Ave & East-West Hwy,38.97421993543975,-76.99521927341169,10
763,32413,Rhode Island Ave & 39th St / Brentwood Arts Exchange,38.93926454623292,-76.95504417912757,8
764,32414,Riggs Rd & East West Hwy,38.9725130060581,-76.98066686362415,4
765,32415,Tanger Outlets,38.7968110177083,-77.00261159443825,14
766,32416,Chillum Rd & Riggs Rd / Riggs Plaza,38.96174478114317,-76.99591596346485,24
767,32417,Hyattsville Library / Adelphi Rd & Toledo Rd,38.96974234760929,-76.94928029461259,8
768,32418,West Hyattsville Metro,38.955329530073726,-76.96805119066043,42
769,32419,Capitol Heights Metro,38.88852509662761,-76.91314852607687,8
770,32420,Prince George's Plaza Metro,38.96573158631766,-76.9547988409891,32
771,32421,Riverdale Park Town Center,38.962125540077345,-76.93557612168428,23
772,32422,The Mall at Prince Georges,38.96884482878379,-76.95417171592534,19
773,32423,National Harbor Carousel,38.78590107956905,-77.01670126739887,55
774,32424,Roosevelt Center & Crescent Rd,39.00030941835163,-76.87800663163036,8
775,32425,Crescent Rd & Ridge Rd,39.00616679489808,-76.89125265469667,6
776,32426,Greenbelt Station Parkway,39.0024558132815,-76.91624772878048,12
777,32600,Founders Row/W Broad St & West St,38.89015981973266,-77.18318108928102,13
778,32600,Meridian High School / Haycock Rd & Leesburg Pike,38.896336995124784,-77.19255460088421,4
779,32601,Eden Center,38.873795268154794,-77.15285909076707,8
780,32601,State Theatre / Park Pl & N Washington St,38.88274647589869,-77.17002464733116,3
781,32602,N Oak St & W Broad St,38.88835731717364,-77.1798421611506,11
782,32603,Pennsylvania Ave & Park Ave,38.88740044788801,-77.17698791350104,10
783,32604,E Fairfax St & S Washington St,38.88061009301552,-77.17189530172993,7
784,32605,W Broad St & Little Falls St,38.88359371042202,-77.17343833261452,11
785,32606,N Roosevelt St & Roosevelt Blvd,38.878086440241,-77.15395311362818,15
786,32607,S Maple Ave & S Washington St,38.879727564156155,-77.17840435941973,12
787,32608,Falls Church City Hall / Park Ave & Little Falls St,38.885426708236984,-77.17359026577364,10
788,32609,W Columbia St & N Washington St,38.885624070280286,-77.16691756351312,11
789,32901,6035 Warehouse,38.947454691035354,-77.00073000274621,4
790,33200,17th St & New York Ave NW,38.896606609824424,-77.03977648909935,98
791,30200,9th St & Pennsylvania Ave NW,38.89426063426984,-77.02398188923374,32
792,30201,9th & G St NW,38.89810308976672,-77.02393010585986,28
793,31000,Eads St & 15th St S,38.85896993117383,-77.05323739984607,17
794,31002,Crystal Dr & 20th St S,38.85641855626786,-77.04923681762102,32
795,31003,Crystal Dr & 15th St S,38.86104470873191,-77.04940836159571,28
796,31004,Aurora Hills Cmty Ctr / 18th St & S Hayes St,38.857867041619244,-77.05949007206732,16
797,31005,Pentagon City Metro / 12th St & S Hayes St,38.8622924830393,-77.05993595603526,32
798,31006,Army Navy Dr & S Joyce St,38.86331534231273,-77.06341346381842,17
799,31006,Pentagon Row Plaza / Army Navy Dr & Joyce St,38.863314474478855,-77.06341668045998,19
800,31007,Crystal City Metro / 18th St & S Bell St,38.85776215210289,-77.05169062337053,40
801,31009,Crystal Dr & 27th St S,38.848456033511894,-77.05149156662537,27
802,31010,S Glebe Rd & Potomac Ave,38.84260129397162,-77.05020442090687,17
803,31011,Crystal Dr & 23rd St S,38.85292956181104,-77.0497208454159,25
804,31012,Clark St & 26th St S,38.85067706314338,-77.05152668959045,8
805,31013,Eads St & 22nd St S,38.854380547379044,-77.05341109933676,14
806,31014,19th St N & Ft Myer Dr,38.89718787047492,-77.07211608581562,13
807,31014,Lynn St & 19th St North,38.89734172044788,-77.07094765934605,23
808,31015,Wilson Blvd & Ft Myer Dr,38.89460242572429,-77.07228961034917,28
809,31016,Clarendon Blvd & Pierce St,38.89343945043897,-77.07638168119374,33
810,31017,Wilson Blvd & N Uhle St,38.89170278335102,-77.08459894302126,18
811,31018,Rhodes St & 16th St N,38.892167349169355,-77.07937722499432,9
812,31019,Wilson Blvd & N Edgewood St,38.88939460781784,-77.09185996213317,21
813,31020,Wilson Blvd & N Franklin Rd,38.89040509195777,-77.08889718190684,14
814,31021,Clarendon Blvd & N Fillmore St,38.88809553776877,-77.0930861219835,16
815,31022,Clarendon Metro / Wilson Blvd & N Highland St,38.887011878926764,-77.0952581973752,38
816,31023,Fairfax Dr & Wilson Blvd,38.88580141029512,-77.0977492845139,21
817,31024,Virginia Square Metro / Monroe St & 9th St N,38.882783858159904,-77.10316368609222,30
818,31025,Central Library / Quincy St & 10th St N,38.88397382988496,-77.10782619609243,14
819,31026,Washington Blvd & 10th St N,38.88473322939004,-77.09348712372928,18
820,31027,Wilson Blvd & N Quinn St,38.8939929640793,-77.07857801439395,24
821,31028,N Veitch St & Key Blvd,38.893237015281386,-77.08606053136599,7
822,31029,N Veitch St & 20th St N,38.89693291691841,-77.08648897305669,16
823,31030,Langston Blvd & N Adams St,38.89593716832905,-77.08900278263391,24
824,31031,15th St & N Scott St,38.890541563814374,-77.08094022064073,23
825,31032,Washington Blvd & 7th St N,38.880809219811546,-77.09078582379472,8
826,31033,Barcroft Community Center,38.85033777524273,-77.10098795281917,6
827,31034,Fairfax Dr & N Randolph St,38.882625757127435,-77.1093734933253,23
828,31035,N Quincy St & Glebe Rd,38.87639163397197,-77.10773217822982,10
829,31036,George Mason Dr & Wilson Blvd,38.878868504799165,-77.12069760832189,10
830,31037,Ballston Metro / Stuart St & 9th St N,38.881046489886465,-77.11177361195345,34
831,31038,Glebe Rd & 11th St N,38.88392560610013,-77.11681838877652,11
832,31039,Wilson Blvd & N Quincy St,38.87999388001654,-77.10784127922328,25
833,31040,GMU / Fairfax Dr & Kenmore St,38.88461784164965,-77.10107834646402,7
834,31040,GMU/Fairfax Dr & Kenmore St,38.884692173274075,-77.10034497278649,8
835,31041,Prince St & Union St,38.80312227456571,-77.04035530501741,21
836,31042,Market Square / King St & Royal St,38.804717107716186,-77.04336037439766,28
837,31043,St Asaph & Pendleton St,38.81074252619378,-77.04463007250298,13
838,31044,King St & Patrick St,38.805310699645226,-77.04989069283839,15
839,31045,Commerce St & Fayette St,38.805647803649606,-77.05292986431155,10
840,31046,Henry St & Pendleton St,38.81145750758238,-77.05027186549046,8
841,31047,Braddock Rd Metro,38.81457106730769,-77.0528126658547,10
842,31047,Braddock Rd Metro North,38.81457471810663,-77.05280779929592,22
843,31048,King St Metro South,38.805764403050986,-77.0606260264641,14
844,31049,Fairfax Dr & N Taylor St,38.882410086965386,-77.11275729071053,10
845,31049,Utah St & 11th St N,38.88367081397919,-77.11390482266489,8
846,31050,Barton St & 10th St N,38.884990773363995,-77.08779281208218,7
847,31051,Arlington Blvd & N Queen St,38.88936079543271,-77.07729667039862,10
848,31052,Potomac Ave & 35th St S,38.844012943219035,-77.0505334184056,18
849,31053,Columbia Pike & S Courthouse Rd,38.86386130536452,-77.08032429401136,6
850,31054,Wakefield High School,38.84713814332593,-77.11254574134468,5
851,31055,28th St & S Meade St,38.84622806660817,-77.06928371030389,8
852,31056,S Troy St & 26th St S,38.847992093303624,-77.07512327013237,4
853,31056,Troy St & 26th St S,38.847980812822854,-77.07510733067926,5
854,31057,Four Mile Run Dr & S Shirlington Rd,38.84440010609977,-77.0859287831746,3
855,31057,S Four Mile Run Dr & Shirlington Rd,38.844400553327304,-77.08592859241281,5
856,31058,Columbia Pike & Monroe St,38.86033439329253,-77.09369831128329,6
857,31058,Columbia Pike & S Oakland St,38.86079478214286,-77.09587330714285,2
858,31059,Four Mile Run Dr & S Walter Reed Dr,38.84735486849397,-77.0954184622279,6
859,31059,S Four Mile Run Dr & Walter Reed Dr,38.84735719243056,-77.09542612753125,4
860,31060,S Arlington Mill Dr & Campbell Ave,38.8423203968179,-77.08955700578485,12
861,31061,Kenmore St & 24th St S,38.84846065687177,-77.08490530012986,4
862,31061,S Kenmore St & 24th St S,38.848461019876545,-77.08491188840972,4
863,31062,Roosevelt Island,38.89655350691314,-77.06714100092064,50
864,31063,S George Mason & Four Mile Run Dr,38.85225176505938,-77.10503054180317,4
865,31063,S George Mason Dr & S Four Mile Run Dr,38.85225184295297,-77.10503313830971,6
866,31064,Gravelly Point,38.86502968431953,-77.03951228088998,79
867,31065,N Pershing Dr & N Wayne St,38.880709427539095,-77.08603124057824,9
868,31065,Pershing Dr & Wayne St,38.880709446658855,-77.08601151850978,8
869,31066,Columbia Pike & S Orme St,38.86727029877727,-77.07231577935947,7
870,31067,Columbia Pike & S Walter Reed Dr,38.86247584953671,-77.08659261672614,16
871,31068,Arlington Mill Cmty Center / Columbia Pike & S Dinwiddie St,38.85636678393211,-77.11157866476638,13
872,31069,N Pershing Dr & N George Mason Dr,38.871808858665624,-77.1079255795594,3
873,31069,Pershing Dr & N George Mason Dr,38.87180901404233,-77.10792345210214,8
874,31070,Arlington Blvd & Fillmore St,38.87374973214857,-77.08924312942453,11
875,31071,Eads St & 12th St S,38.862921534544085,-77.05443172753442,45
876,31072,31st St & S Woodrow St,38.83784879607314,-77.09347926051882,4
877,31073,Washington Blvd & Walter Reed Dr ,38.87323252974691,-77.08210629153591,18
878,31074,TJ Cmty Ctr / 2nd St & S Old Glebe Rd,38.86942256157885,-77.09560211773073,14
879,31075,Rolfe St & 9th St S,38.86647564298163,-77.0761302667567,6
880,31076,S Randolph St & Campbell Ave,38.8406348229439,-77.0886883590019,7
881,31077,Iwo Jima Memorial / Meade & 14th St N,38.88991755808402,-77.07130201372978,33
882,31078,Arlington Blvd & S George Mason Dr,38.86944364182151,-77.1044985162759,7
883,31079,Langston Blvd & N Cleveland St,38.89494265164665,-77.09169744555413,11
884,31080,Langston Blvd & N Scott St,38.89761943425258,-77.08085409948974,10
885,31081,Duke St & John Carlyle St,38.80438574228599,-77.0608690645708,11
886,31082,Eisenhower Ave & Mill Race Ln,38.8011005532077,-77.06894960706276,16
887,31083,Potomac Greens Dr & Slaters Ln,38.82174868995997,-77.04749248121291,14
888,31084,Ballenger Ave & Dulaney St,38.80267517077765,-77.06356852196221,11
889,31085,Mount Vernon Ave & E Nelson Ave,38.82006354881654,-77.05761983797555,13
890,31086,Mount Vernon Ave & E Del Ray Ave,38.82595478297481,-77.05854566932014,10
891,31087,Monroe Ave & Leslie Ave,38.82093440995358,-77.05309064091476,11
892,31088,Mount Vernon Ave & Kennedy St,38.83306858861394,-77.05982200478074,10
893,31089,Court House Metro / 15th St & N Uhle St,38.89060392375634,-77.08480649750987,27
894,31090,Long Bridge Park / Long Bridge Dr & 6th St S,38.865552338129014,-77.05002662059724,8
895,31091,Joyce St & 16th St S,38.85925553603866,-77.06327407443867,18
896,31092,Langston Blvd & N Monroe St,38.89645157627772,-77.10455734707153,9
897,31093,21st St & N Pierce St,38.89898250211997,-77.07832071587944,13
898,31094,Langston Blvd & N Kirkwood Rd,38.89536910876762,-77.09717874287365,4
899,31094,Langston Blvd & N Kirkwood St,38.89537296031747,-77.09715634482848,5
900,31095,Army Navy Dr & S Nash St,38.86220464744443,-77.06814992137436,4
901,31096,Walter Reed Dr & 8th St S,38.866130843484946,-77.08786821315289,8
902,31097,Saint Asaph St & Madison St,38.81271051585763,-77.04410596413979,10
903,31098,King St Metro North / Cameron St,38.807033530696124,-77.05981299173509,20
904,31099,Madison St & N Henry St,38.81348622884529,-77.04946518357058,7
905,31100,19th St & Pennsylvania Ave NW,38.90028292106612,-77.0429060992244,38
906,31101,14th & V St NW,38.91776933297792,-77.03207642931147,137
907,31102,11th & Kenyon St NW,38.929466213706796,-77.02782256750244,92
908,31103,15th & Harvard St NW,38.92612184494288,-77.03543495409804,22
909,31104,Adams Mill & Columbia Rd NW,38.922898513687436,-77.04252880678966,118
910,31105,14th & Harvard St NW,38.92678645672074,-77.03220324707239,47
911,31106,Calvert & Biltmore St NW,38.92320039350227,-77.04764216097503,38
912,31107,Lamont & Mt Pleasant NW,38.93190890760133,-77.03879071681024,113
913,31108,4th & M St SW,38.87672123678696,-77.01787541724961,125
914,31109,7th & T St NW,38.91559792497087,-77.0220235110662,52
915,31109,7th St & Florida Ave NW,38.91614017856139,-77.02201488686161,35
916,31110,20th St & Florida Ave NW,38.915403146967115,-77.04459950673842,82
917,31111,10th & U St NW,38.91719971451082,-77.02590123993531,45
918,31112,Harvard St & Adams Mill Rd NW,38.927875548980005,-77.04334988174837,30
919,31113,Columbia Rd & Belmont St NW,38.920661596103656,-77.04367444049706,81
920,31114,18th St & Wyoming Ave NW,38.918803945802416,-77.04156979747971,138
921,31115,Columbia Rd & Georgia Ave NW,38.92811660328232,-77.02378646517145,69
922,31116,California St & Florida Ave NW,38.91776908399102,-77.04062054201648,101
923,31117,15th & Euclid St NW,38.92335297508569,-77.03518151430127,67
924,31118,3rd & Elm St NW,38.917622053035714,-77.01596800046825,69
925,31119,14th & Belmont St NW,38.92107351608848,-77.03186214901501,103
926,31120,10th & Florida Ave NW,38.920386906018855,-77.02566988201522,51
927,31120,10th St & Florida Ave NW,38.92038310763246,-77.02566222843461,59
928,31121,Calvert St & Woodley Pl NW,38.923579722274674,-77.05005049865993,57
929,31122,16th & Irving St NW,38.92888295688889,-77.0362433772792,70
930,31123,14th & Girard St NW,38.925285558896284,-77.03236763915066,74
931,31124,14th & Irving St NW,38.92858904522402,-77.03222353626153,111
932,31125,15th & W St NW,38.919019380747066,-77.03445370616421,157
933,31126,11th & Girard St NW,38.92562915172602,-77.0271060578944,79
934,31127,22nd & H St NW,38.89894005912121,-77.04884265174549,58
935,31128,23rd & M St NW,38.905302850436115,-77.05026424349444,111
936,31129,15th St & Pennsylvania Ave NW,38.896458559482525,-77.03337718370244,97
937,31130,7th & S St NW,38.91417957633006,-77.02173497310868,59
938,31131,14th & Otis Pl NW,38.93438195694291,-77.0326927523244,63
939,31132,13th & U St NW,38.91691637775505,-77.02962979641099,80
940,31133,20th & Columbia Rd NW,38.91805266048629,-77.04546053446819,83
941,31134,8th & V St NW,38.91774486767168,-77.0226901290382,70
942,31135,16th & Harvard St NW,38.92610782040241,-77.0366552812093,56
943,31136,11th & Clifton St NW,38.9222936378581,-77.02708920687373,30
944,31137,Park Pl & Rock Creek Church Rd NW,38.93715195626106,-77.01911533282986,10
945,31138,4th & College St NW,38.92121534809864,-77.01814193933251,7
946,31200,Massachusetts Ave & Dupont Circle NW,38.910104669858036,-77.0443914323525,159
947,31201,15th & P St NW,38.90980729762687,-77.0344250042817,237
948,31202,14th & R St NW,38.913037413047675,-77.0319855597432,140
949,31203,14th & Rhode Island Ave NW,38.90859704175678,-77.03230490952252,101
950,31203,14th St & Rhode Island Ave NW,38.90859698935401,-77.032305006095,44
951,31204,20th & E St NW,38.896293844023695,-77.04498971403603,69
952,31205,21st & I St NW,38.90071372176465,-77.04643837736928,92
953,31206,19th & E Street NW,38.89519806243798,-77.04361572120861,17
954,31207,Georgia Ave & Fairmont St NW,38.92482648821828,-77.02227297753842,18
955,31207,Georgia Ave and Fairmont St NW,38.924909979160866,-77.02220437967263,10
956,31208,M St & New Jersey Ave SE,38.87630992997382,-77.0036986147898,30
957,31209,1st & N St SE,38.8745790180352,-77.00577326608318,47
958,31210,17th St & Rhode Island Ave NW,38.90676107068525,-77.03861719934018,33
959,31211,Kennedy Center,38.89729695286664,-77.05556273808844,38
960,31212,New Hampshire Ave & Ward Pl NW,38.90571403730816,-77.04730462475041,126
961,31213,17th & K St NW,38.90275214038556,-77.03861823151543,99
962,31214,17th & Corcoran St NW,38.91209634487985,-77.03868982071407,162
963,31215,Georgetown Harbor / 30th St NW,38.90233730373331,-77.05913346596559,47
964,31216,14th St & New York Ave NW,38.89962726906963,-77.03168471170015,46
965,31217,USDA / 12th & C St SW,38.88628606294042,-77.028241585251,37
966,31218,L'Enfant Plaza / 7th & C St SW,38.88626655365504,-77.02224522960478,53
967,31219,10th St & Constitution Ave NW,38.893021162051966,-77.02600995141827,58
968,31220,US Dept of State / Virginia Ave & 21st St NW,38.89489242618164,-77.04658484308794,43
969,31221,18th & M St NW,38.9050631735409,-77.04176783525836,88
970,31222,New York Ave & 15th St NW,38.899025680555816,-77.033349797739,69
971,31223,Convention Center / 7th & M St NW,38.90573104947826,-77.02226506735599,87
972,31224,18th & L St NW,38.90373458743084,-77.04244812010349,66
973,31225,C & O Canal & Wisconsin Ave NW,38.903745069003364,-77.06269111730374,63
974,31226,34th St & Wisconsin Ave NW,38.916456659522474,-77.06820445742947,42
975,31227,13th St & New York Ave NW,38.90028130193492,-77.02984471283342,54
976,31228,8th & H St NW,38.89969623671289,-77.02307883332328,122
977,31229,New Hampshire Ave & T St NW,38.91554833582398,-77.03825324144087,199
978,31230,Metro Center / 12th & G St NW,38.89833460818839,-77.0279050466826,110
979,31231,14th & D St NW / Ronald Reagan Building,38.894516995751914,-77.03161728142166,57
980,31232,7th & F St NW / National Portrait Gallery,38.89729069415114,-77.02219759802621,119
981,31233,17th & K St NW / Farragut Square,38.90206900108729,-77.03833852834317,103
982,31234,20th & O St NW / Dupont South,38.90889364109423,-77.04479829657319,113
983,31235,19th St & Constitution Ave NW,38.89226200579598,-77.04332673778768,36
984,31236,37th & O St NW / Georgetown University,38.9077521594356,-77.07161162114717,131
985,31237,25th St & Pennsylvania Ave NW,38.90382738274756,-77.05348316081219,91
986,31238,14th & G St NW,38.898213607569765,-77.03201119184122,57
987,31239,Rhode Island & Connecticut Ave NW,38.90599878116773,-77.03982655367768,73
988,31240,Ohio Dr & West Basin Dr SW / MLK & FDR Memorials,38.88411520886486,-77.04656396474796,61
989,31241,Thomas Circle,38.90590399726661,-77.0325018751791,127
990,31242,18th St & Pennsylvania Ave NW,38.89966580475861,-77.04155105978347,61
991,31243,4th & C St SW,38.88637349708718,-77.01768541869505,107
992,31244,4th & E St SW,38.88411226393798,-77.01745574906334,52
993,31245,7th & R St NW / Shaw Library,38.91271882060355,-77.02220778346252,89
994,31246,M St & Pennsylvania Ave NW,38.90512625172177,-77.05688575318904,119
995,31247,Jefferson Dr & 14th St SW,38.888553647877096,-77.03242688623997,156
996,31248,Smithsonian-National Mall / Jefferson Dr & 12th St SW,38.888774623185654,-77.02869361167373,148
997,31249,Jefferson Memorial,38.87981906659913,-77.03741580574192,111
998,31250,20th & L St NW,38.90356872768804,-77.04481203326222,67
999,31251,12th & L St NW,38.9038062554091,-77.02840863973736,72
1000,31252,21st St & Pennsylvania Ave NW,38.901532356660084,-77.04658252832395,49
1001,31253,19th & I St NW,38.901608797397174,-77.04341166243094,18
1002,31253,19th & K St NW,38.90219422053774,-77.04339205692372,36
1003,31254,15th & K St NW,38.90200134761611,-77.03354598519472,46
1004,31255,24th & N St NW,38.90659705971441,-77.05149030293724,62
1005,31256,10th & E St NW,38.89591487335985,-77.02604148168913,70
1006,31257,22nd & I St NW / Foggy Bottom,38.900897416460424,-77.04888444145449,101
1007,31258,Lincoln Memorial,38.88825579746309,-77.04943655924367,209
1008,31259,20th St & Virginia Ave NW,38.89472506909161,-77.04512819919374,23
1009,31260,23rd & E St NW ,38.89610592042139,-77.0498594620452,56
1010,31261,21st St & Constitution Ave NW,38.89245374180843,-77.04656903621837,40
1011,31261,Virginia Ave & C St NW,38.8938865177713,-77.04438982524012,12
1012,31262,11th & F St NW,38.89783490519203,-77.02700567205567,47
1013,31263,10th & K St NW,38.902412647750715,-77.02622414251749,88
1014,31264,6th St & Indiana Ave NW,38.89457363261313,-77.01994543078548,82
1015,31265,5th St & Massachusetts Ave NW,38.90092828070388,-77.01867924447194,132
1016,31266,11th & M St NW,38.90558151961705,-77.02731330643464,141
1017,31267,17th St & Massachusetts Ave NW,38.90814366378517,-77.03836922652759,121
1018,31268,12th & U St NW,38.91678318721861,-77.02813516539376,53
1019,31269,3rd St & Pennsylvania Ave SE,38.88737463629055,-77.00195745364401,79
1020,31270,8th & D St NW,38.894843699611265,-77.02323901925271,60
1021,31271,Constitution Ave & 2nd St NW/DOL,38.89227482277787,-77.01391442770749,87
1022,31272,Washington & Independence Ave SW/HHS,38.88698236280326,-77.01376867970421,88
1023,31273,Hains Point/Buckeye & Ohio Dr SW,38.87843520441884,-77.03023380812397,43
1024,31274,10th & G St NW,38.89825443489473,-77.02623386442744,63
1025,31275,New Hampshire Ave & 24th St NW,38.9017498345466,-77.05108363238742,122
1026,31276,15th & L St NW,38.90368573002275,-77.03491167583269,80
1027,31277,17th & G St NW,38.89830081113764,-77.03970338347152,82
1028,31278,18th & R St NW,38.91264700637444,-77.04183858945049,95
1029,31279,19th & G St NW,38.89840433020447,-77.04319461064365,46
1030,31280,11th & S St NW,38.913720204857924,-77.02704377520116,80
1031,31281,8th & O St NW,38.90863565791343,-77.02277802648655,173
1032,31282,16th & R St NW,38.91265375500686,-77.03627617833173,73
1033,31283,14th & L St NW,38.903664718152,-77.03173560830908,74
1034,31284,18th & C St NW,38.89351262816918,-77.04154238092872,56
1035,31285,22nd & P ST NW,38.909389691030135,-77.04872655967982,88
1036,31286,11th & O St NW,38.90838697855005,-77.02711265534326,93
1037,31287,10th St & L'Enfant Plaza SW,38.884329874945735,-77.02599556932861,47
1038,31288,4th St & Madison Dr NW,38.89049572869564,-77.01724770612685,173
1039,31289,Henry Bacon Dr & Lincoln Memorial Circle NW,38.890538940283406,-77.04938241976458,140
1040,31290,17th St & Independence Ave SW,38.888098049403055,-77.03832634601221,83
1041,31291,Vermont Ave & I St NW,38.901140045022714,-77.03445147581199,88
1042,31292,22nd St & Constitution Ave NW,38.89245974684032,-77.04890622563138,37
1043,31293,Thomas Jefferson St NW & Water/K St NW,38.90282358403702,-77.0601530006646,51
1044,31294,7th & E St SW,38.88345224942904,-77.02173519398752,31
1045,31295,Potomac & M St NW,38.90549117911023,-77.06522625502714,92
1046,31296,Columbia & Ontario Rd NW,38.92408399971992,-77.04077625110683,99
1047,31297,Virginia Ave & 25th St NW,38.89860436174673,-77.05320126613545,51
1048,31298,15th & M St NW,38.90541672939544,-77.03464723951107,84
1049,31299,Connecticut Ave & R St NW,38.91264322015197,-77.04563834839769,78
1050,31300,Van Ness Metro / UDC,38.94455116694983,-77.06389409115306,28
1051,31301,Ward Circle / American University,38.93874248278756,-77.08718199070167,10
1052,31302,Wisconsin Ave & Newark St NW,38.934902724959315,-77.07275751680115,32
1053,31303,Tenleytown / Wisconsin Ave & Albemarle St NW,38.94759527250262,-77.07936667835871,24
1054,31304,36th & Calvert St NW / Glover Park,38.92258244248521,-77.07032738968404,33
1055,31305,Connecticut Ave & Macomb St NW / Cleveland Park,38.93364071025588,-77.05754894701222,27
1056,31305,Connecticut Ave & Newark St NW / Cleveland Park,38.93427338989612,-77.05797706136646,25
1057,31306,39th & Calvert St NW / Stoddert,38.92264140519154,-77.0772440123783,35
1058,31307,3000 Connecticut Ave NW / National Zoo,38.930300391161616,-77.05560601278935,29
1059,31308,39th & Veazey St NW,38.94383932395466,-77.07707714042166,14
1060,31309,Fessenden St & Wisconsin Ave NW,38.95480951795193,-77.08242542225351,6
1061,31310,Connecticut & Nebraska Ave NW,38.95502416685418,-77.06996962547521,31
1062,31311,13th & O St NW/ Logan Circle,38.908742163938804,-77.02977523053393,46
1063,31312,Wisconsin Ave & O St NW,38.90848755983352,-77.06359705992953,65
1064,31313,Connecticut Ave & Tilden St NW,38.94114057077506,-77.06197480826451,25
1065,31314,34th & Water St NW,38.90372526214194,-77.06752933342325,52
1066,31315,Connecticut Ave & McKinley St NW,38.964545913685676,-77.07514417390283,18
1067,31316,Yuma St & Tenley Circle NW,38.94618593099793,-77.08057058742276,15
1068,31317,Wisconsin Ave & Ingomar St NW,38.95827115787513,-77.08463605816357,11
1069,31318,Connecticut Ave & Yuma St NW,38.947146976580676,-77.06511149690812,14
1070,31319,Wisconsin Ave & Brandywine St NW,38.94981608197013,-77.08021675343517,19
1071,31320,American University East Campus,38.936295327096445,-77.08713703053907,22
1072,31321,15th St & Constitution Ave NW,38.89224515188045,-77.03323114115939,114
1073,31322,48th Pl & MacArthur Blvd NW,38.917038653032854,-77.09576567701963,10
1074,31323,Woodley Park Metro / Calvert St & Connecticut Ave NW,38.92338800596047,-77.05183015893573,73
1075,31324,18th & New Hampshire Ave NW,38.91126815548902,-77.04182898041958,86
1076,31325,Reservoir Rd & 38th St NW,38.912634856578656,-77.07433640139531,51
1077,31326,Hardy Rec Center,38.909688909343686,-77.08562442441891,15
1078,31327,14th & Q St NW,38.9106919708941,-77.03188536851088,102
1079,31328,21st St & G st NW,38.89830321750221,-77.04690940400742,94
1080,31329,White House,38.8955439593075,-77.03791667600248,2
1081,31330,17th & P St NW,38.90985639179465,-77.03855361317082,119
1082,31331,Arizona Ave & MacArthur Blvd NW,38.927290731744236,-77.10366083675778,6
1083,31332,11th & V St NW,38.91819231916464,-77.02711894364471,45
1084,31332,11th & V st NW,38.91819189955471,-77.02712618257767,38
1085,31333,Wisconsin Ave & Rodman St NW,38.93967722957792,-77.07527966727166,12
1086,31334,Loughboro Rd & Dalecarlia Pkwy NW / Sibley Hospital,38.93585703457594,-77.10684413955121,5
1087,31390,Whitehaven Pkwy & Foxhall Rd NW / GWU Mt. Vernon,38.91650128875,-77.09089878675,1
1088,31400,Georgia & New Hampshire Ave NW,38.93670802360198,-77.02416693388929,55
1089,31401,14th St & Spring Rd NW,38.93749329952911,-77.03281433867127,57
1090,31402,14th St Heights / 14th & Crittenden St NW,38.94773906493375,-77.03283455450816,11
1091,31403,5th & Kennedy St NW,38.95657952609711,-77.01981056947585,11
1092,31404,9th & Upshur St NW,38.941774233999624,-77.02509775263907,36
1093,31405,Georgia Ave & Emerson St NW,38.949665213070446,-77.02734226135263,7
1094,31406,14th & Upshur St NW,38.94248523176645,-77.03267638999804,26
1095,31407,14th St & Colorado Ave NW,38.95642374762842,-77.03295427429524,19
1096,31408,Takoma Metro,38.97522250008627,-77.0168601892269,25
1097,31411,Georgia & Missouri Ave NW,38.961353099539245,-77.02785159115032,19
1098,31412,3rd St & Riggs Rd NE,38.95746301858879,-77.00224957533847,6
1099,31413,3rd & Underwood St NW,38.969235861672345,-77.0163639762634,8
1100,31414,Georgia Ave & Piney Branch Rd NW,38.96751696573097,-77.02796638224623,7
1101,31415,Georgia Ave & Kennedy St NW,38.95672624840706,-77.02789902632587,8
1102,31416,14th & Luzon St NW,38.96948719372747,-77.0334882491449,9
1103,31416,14th St & Luzon Ave NW,38.96949193460053,-77.03349461989927,7
1104,31417,Kansas Ave & Sherman Cr NW,38.94797439011418,-77.02147208830993,41
1105,31418,New Hampshire & Gallatin St NW,38.951605629710436,-77.01280556134742,17
1106,31419,Georgia Ave & Morton St NW,38.932119666803224,-77.02348943123688,46
1107,31420,17th & Upshur St NW,38.9421633923744,-77.03867566804023,12
1108,31421,Grant Circle,38.942036949183276,-77.01822507492108,28
1109,31422,Broad Branch Rd & Northampton St NW,38.96578370087015,-77.06863281412959,5
1110,31423,Kansas Ave & Longfellow St NW,38.95801914817783,-77.01390199131767,9
1111,31424,9th & Ingraham St NW,38.95373216979551,-77.02561394395757,7
1112,31425,Georgia Ave & Dahlia St NW,38.976014635982146,-77.02674519164881,2
1113,31426,10th St & Spring Rd NW,38.936234104779054,-77.02714573572673,17
1114,31500,4th & W St NE,38.91907371021347,-77.00064530268173,48
1115,31501,12th & Newton St NE,38.933690477965854,-76.99103236140223,12
1116,31502,John McCormack Dr & Michigan Ave NE,38.93461235370708,-76.9955023560559,16
1117,31503,Florida Ave & R St NW,38.91259262840588,-77.01349150829006,85
1118,31504,10th & Monroe St NE,38.932461830613,-76.99350462494046,27
1119,31505,Eckington Pl & Q St NE,38.91096756035548,-77.00494592461862,104
1120,31506,1st & Rhode Island Ave NW,38.91541052326589,-77.01227903599303,104
1121,31507,1st & Washington Hospital Center NW,38.928748033349756,-77.01243198206836,27
1122,31508,Gallaudet / 8th St & Florida Ave NE,38.905088309841254,-76.99414274052836,17
1123,31509,New Jersey Ave & R St NW,38.91267140758456,-77.01765169188795,64
1124,31510,18th St & Rhode Island Ave NE,38.92705778827528,-76.97893941810995,6
1125,31511,12th & Irving St NE,38.92865041846559,-76.99094899105626,19
1126,31512,Neal St & Trinidad Ave NE,38.90373246839195,-76.98721324230156,24
1127,31513,Rhode Island Ave & V St NE,38.91815212158198,-77.00474485224994,29
1128,31514,Hamlin & 7th St NE,38.92748043715672,-76.99719620531094,27
1129,31515,Fort Totten Metro,38.95237154736703,-77.00270813760064,38
1130,31516,Rhode Island Ave Metro,38.920674031901406,-76.99587019321756,29
1131,31517,Union Market,38.90791135910582,-76.99706645390103,40
1132,31518,New York Ave & Hecht Ave NE,38.91560074887341,-76.98367666902166,53
1133,31519,1st & O St NW,38.90864461822481,-77.01236582860173,78
1134,31520,24th & R St NE / National Arboretum,38.91262996357654,-76.97192829464302,30
1135,31521,18th & Monroe St NE,38.9329292349309,-76.97950863352081,6
1136,31522,2nd St & Seaton Pl NE,38.91473833016975,-77.00355906050922,28
1137,31523,Lincoln Rd & Seaton Pl NE/Harry Thomas Rec Center,38.9149857199028,-77.00779292656385,22
1138,31524,Montello Ave & Holbrook Terr NE,38.90742725933118,-76.98682707346428,28
1139,31525,Trinidad Rec Center,38.906294354788116,-76.98321289107686,13
1140,31526,Rhode Island & Montana Ave NE,38.92429240098082,-76.98592901908289,8
1141,31527,North Capitol & R St NE,38.912621219604596,-77.00882480946444,40
1142,31528,John McCormack Rd NE,38.93886802869031,-76.99722238792144,9
1143,31529,Edgewood Rec Center,38.92409376462127,-77.00210046113581,33
1144,31530,Capitol Ave & Kendall St NE,38.91103100775887,-76.98581610167716,11
1145,31531,MBT & Bryant St NE,38.92238191436236,-76.9960264301032,64
1146,31532,4th & Florida Ave NE,38.90730241505445,-77.00071681484077,158
1147,31533,Tanner Park,38.91123155805817,-77.00224278555226,64
1148,31534,7th & Monroe St NE,38.93222053737888,-76.99613989812477,17
1149,31535,10th St & Rhode Island Ave NE,38.92248447916201,-76.99271272811333,6
1150,31536,5th & Morse St NE,38.90728340726499,-76.99916521585118,26
1151,31537,Fort Lincoln Dr & 33rd Pl NE,38.9216541439337,-76.9556953388089,3
1152,31538,South Dakota Ave & Bladensburg Rd NE,38.925182824207404,-76.96487846222962,2
1153,31539,South Dakota Ave & 33rd St NE,38.92199337524074,-76.96070468363888,2
1154,31540,3rd & N St NE,38.907070508759354,-77.00208482587492,18
1155,31541,10th & Quincy St NE / Turkey Thicket Rec,38.93786660697687,-76.9934817976844,10
1156,31542,12th & Varnum St NE,38.943557879968054,-76.9901465794037,3
1157,31600,5th & K St NW,38.903041398539834,-77.01902831016767,254
1158,31601,19th & East Capitol St SE,38.889599524061154,-76.97689994129122,22
1159,31602,Park Rd & Holmead Pl NW,38.93080347239115,-77.03147037493473,79
1160,31603,1st & M St NE,38.905688487607,-77.00548769590753,201
1161,31604,3rd & H St NW,38.89940909493685,-77.01526168320684,62
1162,31605,3rd & D St SE,38.88510524942628,-77.00229272348965,70
1163,31606,Potomac & Pennsylvania Ave SE,38.88029998074027,-76.98620603378642,60
1164,31607,13th & E St SE,38.88291733213997,-76.98790034601237,31
1165,31608,8th & Eye St SE / Barracks Row,38.87920324758055,-76.99529436437962,58
1166,31609,Maine Ave & 7th St SW,38.87869945990522,-77.02305548523744,105
1167,31610,Eastern Market / 7th & North Carolina Ave SE,38.8869525290932,-76.99680743052464,76
1168,31611,13th & H St NE,38.90043327681858,-76.98825006718641,84
1169,31612,D St & Maryland Ave NE,38.89484210121367,-76.99591291455712,89
1170,31613,Eastern Market Metro / Pennsylvania Ave & 8th St SE,38.88409606317557,-76.99523955887314,179
1171,31615,6th & H St NE,38.89997296444647,-76.99835773579751,143
1172,31616,3rd & H St NE,38.90041480332316,-77.00197532987939,116
1173,31617,Bladensburg Rd & Benning Rd NE,38.90041738012848,-76.98287798716085,20
1174,31618,4th & East Capitol St NE,38.88995520140989,-77.00035168566662,76
1175,31619,Lincoln Park / 13th & East Capitol St NE ,38.890460059892895,-76.98835814811387,83
1176,31620,5th & F St NW,38.89722955780518,-77.01933362428704,70
1177,31621,4th & D St NW / Judiciary Square,38.895379488591765,-77.0161130519853,43
1178,31622,13th & D St NE,38.894833651109344,-76.98763449083297,62
1179,31623,Columbus Circle / Union Station,38.89697473943534,-77.00492206045074,276
1180,31624,North Capitol St & F St NW,38.89744161180189,-77.00988030738775,82
1181,31625,3rd & G St SE,38.88118506857387,-77.00182399720389,58
1182,31626,15th St & Massachusetts Ave SE,38.88731636223032,-76.9835680549984,39
1183,31627,3rd & M St NE,38.90547203807079,-77.00213341113269,114
1184,31627,M St & Delaware Ave NE,38.90570014538555,-77.00295811770867,66
1185,31628,1st & I St SE,38.87885191509991,-77.00575231360129,110
1186,31628,1st & K St SE,38.8788421279468,-77.00577718303457,103
1187,31629,8th & East Capitol St NE,38.889986601854694,-76.99518957298898,42
1188,31630,15th & East Capitol St NE,38.88990906113697,-76.98333962323358,41
1189,31631,8th & F St NE,38.89727257166223,-76.99474825870035,66
1190,31632,15th & F St NE,38.89718512609523,-76.98357402039426,53
1191,31633,Independence Ave & L'Enfant Plaza SW/DOE,38.88731189751728,-77.0257641442301,48
1192,31634,3rd & Tingey St SE,38.87499796412136,-77.00240955507381,67
1193,31635,Potomac Ave & 8th St SE,38.8767374004577,-76.9944659783968,29
1194,31636,New Jersey Ave & N St NW/Dunbar HS,38.90733914788812,-77.01535980473504,54
1195,31637,North Capitol St & G Pl NE,38.89970482480776,-77.00894129224439,26
1196,31638,1st & H St NW,38.90035783497107,-77.01212497589269,75
1197,31639,2nd & G St NE,38.89966817106185,-77.0036406588882,74
1198,31640,Maryland Ave & E St NE,38.896209521364995,-76.99280068179556,62
1199,31641,2nd St & Massachusetts Ave NE,38.89497271553185,-77.00313780989033,125
1200,31642,4th St & K St NW,38.902402391249275,-77.01599315246658,53
1201,31642,New Jersey Ave & K St NW,38.902579681983426,-77.01371389196973,34
1202,31643,1st & D St SE,38.88491473304794,-77.00596310815268,79
1203,31644,12th St & Pennsylvania Ave SE,38.88249217949543,-76.99012204831628,35
1204,31645,6th & K St NE,38.9029457578518,-76.99840526251101,63
1205,31646,Maine Ave & 9th St SW,38.880436264126345,-77.02523144162315,128
1206,31647,7th St & Massachusetts Ave NE,38.89221610943163,-76.99601051953881,58
1207,31648,Potomac Ave & Half St SW,38.86968122756797,-77.0108121975859,29
1208,31649,14th & Newton St NW,38.93199570613247,-77.03296592762256,66
1209,31650,1st & M St SE,38.87692195086118,-77.00602945556635,80
1210,31651,11th & Park Rd NW,38.93133703648254,-77.02824008558653,82
1211,31652,4th & M St SE,38.87674186158301,-77.00071856879127,58
1212,31653,7th & K St NW,38.902666147156324,-77.02140006863318,86
1213,31654,King Greenleaf Rec Center,38.87621146031438,-77.01243796173317,27
1214,31655,New Jersey Ave & F St NW,38.89711448060969,-77.01162147452311,148
1215,31656,Maryland Ave & 17th St NE,38.90193662115972,-76.97863275767384,24
1216,31657,Massachusetts Ave & 6th St NE,38.892936370105055,-76.9982722554748,50
1217,31658,Rosedale Rec Center,38.89781525048364,-76.97963393849766,18
1218,31659,11th & C St SE,38.88590645576241,-76.99147780091096,48
1219,31660,8th & K St NE,38.902725616453935,-76.99514975522361,58
1220,31661,8th & H St NE,38.899926011812106,-76.9948919466979,67
1221,31662,1st & K St NE,38.90239752334406,-77.00565164459775,103
1222,31663,14th & D St SE,38.8840556081785,-76.98633735208563,74
1223,31664,Half & Water St SW,38.866282389861205,-77.01054740278487,36
1224,31665,Stadium Armory Metro,38.88559207488759,-76.97722822627664,16
1225,31666,4th & G St SW,38.88111161950727,-77.01770160744385,56
1226,31666,4th St & G St SW,38.88112141549777,-77.01765629581703,47
1227,31667,2nd & V St SW / James Creek Marina,38.86373582662374,-77.01380889544625,34
1228,31668,1st St & Potomac Ave SE,38.87184031021833,-77.0059126032659,48
1229,31669,3rd & M St SE,38.87682712182711,-77.00213262977546,26
1230,31669,3rd & M st SE,38.87682823808981,-77.0021176190054,21
1231,31670,12th St & New York Ave NW,38.9011005611754,-77.02805694737175,41
1232,31671,53rd & D St SE/C.W. Harris Elementary,38.88335653099206,-76.92530302950198,2
1233,31672,10th & H St NE,38.89998081915279,-76.99272006756797,51
1234,31673,Waterfront Park,38.87482003505036,-77.02079030778128,19
1235,31674,Maine Ave & Water St SW,38.876739080672046,-77.0209411432851,18
1236,31675,North Capitol & K St NE,38.90244213109605,-77.00824443872712,18
1237,31676,1st & Q St SW,38.870819922793046,-77.01193070788558,15
1238,31677,1st & L St NW,38.90382295503185,-77.01195961719537,12
1239,31678,4th & O St SW,38.87296424252877,-77.01758987441451,16
1240,31700,Good Hope & Naylor Rd SE,38.86164938720315,-76.969164595279,5
1241,31701,Branch & Pennsylvania Ave SE,38.869209887065985,-76.95969270165457,4
1242,31702,Randle Circle & Minnesota Ave SE,38.87802072163414,-76.96071187479502,3
1243,31703,Minnesota Ave Metro/DOES,38.897050119703,-76.94744207679464,3
1244,31704,Nannie Helen Burroughs & Minnesota Ave NE,38.901384047972925,-76.94187870174837,2
1245,31705,Benning Branch Library,38.89398830645777,-76.94795643181574,3
1246,31706,Fairfax Village,38.86558791206597,-76.95211170503472,2
1247,31707,Benning Rd & East Capitol St NE / Benning Rd Metro,38.88995677160572,-76.93723414306679,6
1248,31708,Anacostia Ave & Benning Rd NE / River Terrace ,38.89654260315719,-76.96011796845265,12
1249,31710,Nannie Helen Burroughs Ave & 49th St NE,38.89852845822418,-76.93186674573228,3
1250,31711,Deanwood Rec Center,38.90844547578651,-76.93310069187953,3
1251,31712,Oklahoma Ave & D St NE,38.894468049101924,-76.97483653867927,31
1252,31713,Division Ave & Foote St NE,38.89740596109444,-76.92590887881667,2
1253,31714,61st St & Banks Pl NE,38.891818993049384,-76.91357766368313,3
1254,31715,37th & Ely Pl SE,38.883004656804445,-76.94972569631666,2
1255,31716,Kingman Island/The Fields at RFK,38.89595458428551,-76.9678458305495,12
1256,31717,Kenilworth Terr & Hayes St. NE,38.90045761810375,-76.94729059759467,2
1257,31717,Kenilworth Terrace & Hayes St. NE,38.900464409427094,-76.94729752478557,2
1258,31718,Ridge Rd Community Center,38.87619822587627,-76.9409260661535,2
1259,31719,Oklahoma Ave & Benning Rd NE,38.897484745781306,-76.96950373129272,14
1260,31720,Anacostia Roller Skating Pavilion,38.87876589356296,-76.97093308197256,7
1261,31720,Anacostia Roller Skating Pavillion,38.87876771461558,-76.9709311632518,15
1262,31721,Anacostia Ave & East Capitol St NE,38.89045298188272,-76.96128384548253,4
1263,31722,Woody Ward Rec Center,38.879579026600005,-76.926617206,2
1264,31723,Ridge Rd & Southern Ave SE,38.872981333333335,-76.93527162500001,2
1265,31724,41st St & Alabama Ave SE / Fort Davis Rec,38.870312818,-76.945268365,1
1266,31800,Alabama & MLK Ave SE,38.843270413370675,-76.99916944875461,4
1267,31801,Anacostia Metro,38.86265260994432,-76.99464819283278,11
1268,31802,Good Hope Rd & MLK Ave SE,38.86736736112376,-76.98804256595689,18
1269,31803,Good Hope Rd & 14th St SE,38.867921896041935,-76.98593303802886,4
1270,31804,Anacostia Library,38.86578301748178,-76.97840196789285,5
1271,31805,Pennsylvania & Minnesota Ave SE,38.87306956426692,-76.97102314236557,3
1272,31806,Congress Heights Metro,38.84471164758244,-76.98782209830985,5
1273,31807,Pleasant St & MLK Ave SE,38.8638934202864,-76.99001572610615,5
1274,31811,South Capitol & Atlantic St SW,38.83152146525185,-77.00813529859802,3
1275,31812,16th & Q St SE / Anacostia HS,38.87069615577539,-76.9823603103972,3
1276,31813,Alabama Ave & Stanton Rd SE / Shops at Park Village,38.846272201942575,-76.98184251851876,2
1277,31814,Mississippi Ave & 19th St SE / THEARC,38.84376395052083,-76.97557339409722,2
1278,31815,19th & Savannah St SE,38.84623007037037,-76.97703131296296,2
1279,31816,4th St & Mississippi Ave SE,38.83601678901411,-77.00088310603375,4
1280,31817,1st & S Capitol St SE / Oxon Run Trail,38.824475342321975,-77.00548331463762,6
1281,31818,Livingston Rd & 3rd St SE,38.823732406157404,-77.0022267614375,3
1282,31819,Joliet St & MLK Ave SW/Bald Eagle Rec Ctr,38.81909,-77.01033,1
1283,31820,Anacostia Park,38.87334693355879,-76.98339751810462,11
1284,31822,Stanton Square SE,38.85500259831349,-76.98447599632937,3
1285,31823,United Medical Center,38.83573833333334,-76.98315952083333,2
1286,31824,Valley Ave & Wheeler Rd SE,38.83666130541403,-76.99358956959837,3
1287,31825,Fort Stanton Rec Center,38.857328738576925,-76.97772594282411,2
1288,31826,Minnesota Ave & R St SE,38.86934658605018,-76.9785273154393,5
1289,31827,St. Elizabeths West Campus/DHSÂ ,38.853129865472816,-77.0051738570064,8
1290,31828,New Jersey Ave & H St SE,38.880710905730815,-77.00575955345573,56
1291,31829,16th & Bangor St SE,38.86053226952592,-76.98357005908889,2
1292,31830,South Capitol St and Southern Ave SE,38.821576054124996,-77.001161555625,2
1293,31900,Langston Blvd & N Woodstock St,38.898302249712025,-77.11799230688898,7
1294,31901,Washington Blvd & N Frederick St,38.88483133390448,-77.12768002846578,2
1295,31902,Wilson Blvd & N Illinois St ,38.87652608080407,-77.12711791422618,7
1296,31903,Royal St & Wilkes St,38.79926856712687,-77.04469702746964,8
1297,31904,East Falls Church Metro / Sycamore St & 19th St N,38.88534763221191,-77.15643696271323,15
1298,31905,Kennebec St & 11th St N,38.880996806575574,-77.13526663609295,5
1299,31906,Commonwealth Ave & Oak St,38.81269621566291,-77.06171457604276,6
1300,31907,Franklin St & S Washington St,38.798135962366764,-77.04870849595875,10
1301,31908,Kenwood Ave & Osage St,38.82797538502778,-77.08479868874444,3
1302,31908,Radford St & Osage St,38.82844356498718,-77.08602911889317,2
1303,31909,Mount Vernon Ave & Four Mile Run Park,38.84342270152117,-77.06401556614081,10
1304,31910,Potomac Ave & Main Line Blvd,38.82273439096929,-77.04927690491922,12
1305,31912,Mount Vernon Ave & Bruce St,38.84129479911528,-77.06308738695759,5
1306,31913,Commonwealth Ave & E Monroe Ave,38.82005798143823,-77.06281703250002,7
1307,31914,Lee Center,38.79755808613515,-77.05376820916302,4
1308,31915,Powhatan St & Bashford Ln,38.81874997524041,-77.0477820359109,9
1309,31916,Potomac Ave & Swann Ave,38.829545353651575,-77.04784413862804,14
1310,31917,N Lynn St & Fairfax Dr,38.89384155412916,-77.07086361878055,20
